Year,Seq,,Disaster Group,Disaster Subgroup,Disaster Type,Disaster Subtype,Disaster Subsubtype,Event Name,Country,ISO,Region,Continent,Location,Origin,Associated Dis,Associated Dis2,OFDA Response,Appeal,Declaration,Aid Contribution,Dis Mag Value,Dis Mag Scale,Latitude,Longitude,Local Time,River Basin,Start Year,Start Month,Start Day,End Year,End Month,End Day,Total Deaths,No Injured,No Affected,No Homeless,Total Affected,Insured Damages ('000 US$),Total Damages ('000 US$),CPI,Adm Level,Admin1 Code,Admin2 Code,Geo Locations,
1902,0012,,Natural,Geophysical,Earthquake,Ground movement,,,Guatemala,GTM,Central America,Americas,"Quezaltenango, San Marcos",,Tsunami/Tidal wave,,,,,,8,Richter,14,-91,20:20,,1902,4,18,1902,4,18,2000,,,,,,25000,3.350513162,,,,,
1905,0003,,Natural,Geophysical,Earthquake,Ground movement,,,India,IND,Southern Asia,Asia,Kangra,,,,,,,,8,Richter,32.04,76.16,06:20,,1905,4,4,1905,4,4,20000,,,,,,25000,3.479379053,,,,,
1906,0014,,Natural,Geophysical,Earthquake,Ground movement,,,Chile,CHL,South America,Americas,Valparaiso,,Tsunami/Tidal wave,,,,,,8,Richter,33.05,71.4,19:57,,1906,8,16,1906,8,16,20000,,,,,,100000,3.479379053,,,,,
1906,0002,,Natural,Geophysical,Earthquake,Ground movement,,,Colombia,COL,South America,Americas,Tumako,,Tsunami/Tidal wave,,,No,No,,9,Richter,1.51 N,78.46 W ,,,1906,1,31,1906,1,31,400,,,,,,,3.479379053,,,,,
1907,0006,,Natural,Geophysical,Earthquake,Ground movement,,,China,CHN,Eastern Asia,Asia,Tien Shan,,,,,,,,7,Richter,38.5,69.9,09:23,,1907,10,21,1907,10,21,12000,,,,,,,3.608244944,,,,,
1909,0009,,Natural,Geophysical,Earthquake,Ground movement,,,France,FRA,Western Europe,Europe,"Lambesc, Saint-Cannat, Rognes, Vernegues, Charleval, La Roque d'Antheron (Haute-Provence)",,,,,,,,6,Richter,44.05,6.14,21:15,,1909,6,11,1909,6,11,46,,,,,,,3.479379053,,,,,
1910,0004,,Natural,Geophysical,Earthquake,Ground movement,,,Costa Rica,CRI,Central America,Americas,Cartago,,,,,,,,,Richter,9.8,-84,,,1910,4,13,1910,4,13,1750,,,,,,,3.608244944,,,,,
1910,0005,,Natural,Geophysical,Earthquake,Ground movement,,,Algeria,DZA,Northern Africa,Africa,"Kabylie, Masqueray",,,,,,,,6,Richter,36,4,13:36,,1910,6,24,1910,6,24,12,,,,,,,3.608244944,,,,,
1914,0022,,Natural,Geophysical,Earthquake,Ground movement,,,Indonesia,IDN,South-Eastern Asia,Asia,"Kepahyang, Bengkulu (Sumatera)",,Tsunami/Tidal wave,,,,,,8,Richter,-3.924,101.82,03:07,,1914,6,26,1914,6,26,20,20,,,20,,,3.878863315,,,,,
1917,0014,,Natural,Geophysical,Earthquake,Ground movement,,,China,CHN,Eastern Asia,Asia,Yunnan province,,,,,,,,7,Richter,28,104,07:00,,1917,7,31,1917,7,31,1800,,,,,,,4.961336798,,,,,
1917,0009,,Natural,Geophysical,Earthquake,Ground movement,,,Guatemala,GTM,Central America,Americas,Guatemala city,,,,,,,,6,Richter,14.38,-90.22,22:27,,1917,12,25,1917,12,25,2650,,,,,,,4.961336798,,,,,
1917,0003,,Natural,Geophysical,Earthquake,Ground movement,,,Indonesia,IDN,South-Eastern Asia,Asia,Bali,,,,,,,,7,Richter,-7,116,07:08,,1917,1,21,1917,1,21,15000,,,,,,,4.961336798,,,,,
1918,0020,,Natural,Geophysical,Earthquake,Ground movement,,,China,CHN,Eastern Asia,Asia,Kwangtung (Guangdong),,Tsunami/Tidal wave,,,,,,7,Richter,23.5,117,14:07,,1918,2,13,1918,2,13,10000,,,,,,,5.824738266,,,,,
1920,0007,,Natural,Geophysical,Earthquake,Ground movement,,,China,CHN,Eastern Asia,Asia,"Gansu, Shanxi provinces",,"Slide (land, mud, snow, rock)",Tsunami/Tidal wave,,,,,9,Richter,36.888,105.606,19:11,,1920,12,16,1920,12,16,180000,,,,,,25000,7.757726629,,,,,
1922,0001,,Natural,Geophysical,Earthquake,Ground movement,,,Chile,CHL,South America,Americas,Atacama,,Tsunami/Tidal wave,,,,,,9,Richter,-28.553,-70.755,00:32,,1922,11,11,1922,11,11,1000,,,,,,,6.48195431,,,,,
1923,0019,,Natural,Geophysical,Earthquake,Ground movement,,,China,CHN,Eastern Asia,Asia,Sichuan,,,,,,,,7,Richter,31.295,100.75,19:46,,1923,3,24,1923,3,24,5000,,,,,,,6.597933612,,,,,
1924,0005,,Natural,Geophysical,Earthquake,Ground movement,,,Ecuador,ECU,South America,Americas,Chimborazo,,,,,,,,7,Richter,-1.29,-78.52,03:01,,1924,3,3,1924,3,3,40,,,,,,,6.636593379,,,,,
1924,0007,,Natural,Geophysical,Earthquake,Ground movement,,,Indonesia,IDN,South-Eastern Asia,Asia,Wonosobo (Central Java),,,,,,,,,Richter,-7.21,109.56,,,1924,12,2,1924,12,2,727,,,11250,11250,,,6.636593379,,,,,
1925,0002,,Natural,Geophysical,Earthquake,Ground movement,,,China,CHN,Eastern Asia,Asia,Talifu (Yunnan province),,,,,,,,7,Richter,25.713,100.422,21:48,,1925,3,16,1925,3,16,5000,,,,,,,6.791232448,,,,,
1926,0014,,Natural,Geophysical,Earthquake,Ground movement,,,Egypt,EGY,Northern Africa,Africa,Basse-Egypte,,,,,,,,,Richter,30.03 N,31.15 E,,,1926,6,26,1926,6,26,12,,,,,,,6.855665393,,,,,
1927,0014,,Natural,Geophysical,Earthquake,Ground movement,,,Indonesia,IDN,South-Eastern Asia,Asia,"Sulawesi, Donggala",,Tsunami/Tidal wave,,,,,,6,Richter,-0.842,120.764,11:37,,1927,12,1,1927,12,1,50,50,,,50,,,6.726799502,,,,,
1927,0006,,Natural,Geophysical,Earthquake,Ground movement,,,China,CHN,Eastern Asia,Asia,Gansu province,,,,,,,,8,Richter,37.645,102.489,05:38,,1927,5,23,1927,5,23,40912,524,,133370,133894,,,6.726799502,,,,,
1928,0024,,Natural,Geophysical,Earthquake,Tsunami,,,Canada,CAN,Northern America,Americas,"Burin Peninsula, Newfoundland",Earthquake,,,,No,No,,7,Richter,48.60 N,58.00 W,,,1928,11,18,1928,11,18,27,,,,,,,6.649479968,,,,,
1928,0003,,Natural,Geophysical,Earthquake,Ground movement,,,Chile,CHL,South America,Americas,Talca,,,,,,,,,Richter,35.28 S,71.40 W,,,1928,,,1928,,,220,,,,,,,6.649479968,,,,,
1928,0001,,Natural,Geophysical,Earthquake,Ground movement,,,Greece,GRC,Southern Europe,Europe,,,,,,,,,,Richter,38.00 N,23.44 E,,,1928,,,1928,,,103,,,,,,,6.649479968,,,,,
1928,0012,,Natural,Geophysical,Earthquake,Tsunami,,,Indonesia,IDN,South-Eastern Asia,Asia,Flores sea,Volacno and landslide,,,,No,No,,3,Richter,8.30 S,121.70 E,,,1928,8,4,1928,8,4,128,,,,,,,6.649479968,,,,,
1932,0009,,Natural,Geophysical,Earthquake,Ground movement,,,Indonesia,IDN,South-Eastern Asia,Asia,"Kakas, Langowan, Poso, Tondano (North Sulawesi)",,,,,,,,7,Richter,0.5,126,21:08,,1932,5,14,1932,5,14,6,115,,2960,3075,,,5.283501525,,,,,
1933,0021,,Natural,Geophysical,Earthquake,Ground movement,,,China,CHN,Eastern Asia,Asia,Sichuan prpvince,,,,,,,,8,Richter,31.9,103.4,14:50,,1933,8,25,1933,8,25,10000,,,,,,,5.012883154,,,,,
1936,0015,,Natural,Geophysical,Earthquake,Ground movement,,,Indonesia,IDN,South-Eastern Asia,Asia,"Banda Aceh, Lhok Sukon, Lhoksemawe",,Tsunami/Tidal wave,,,,,,7,Richter,6.1,94.7,04:12,,1936,8,24,1936,8,24,9,20,,,20,,,5.373707648,,,,,
1936,0011,,Natural,Geophysical,Earthquake,Ground movement,,,Indonesia,IDN,South-Eastern Asia,Asia,"Tapanuli, Karo (North Sumatera)",,,,,,,,,Richter,3.5,97.5,,,1936,9,9,1936,9,9,17,,,,,,,5.373707648,,,,,
1938,0009,,Natural,Geophysical,Earthquake,Ground movement,,,Indonesia,IDN,South-Eastern Asia,Asia,Tomini Gulf (Central Sulawesi),,Tsunami/Tidal wave,,,,,,8,Richter,-0.557,118.881,01:08,,1938,5,20,1938,5,20,,,920,4710,5630,,,5.451027183,,,,,
1939,0001,,Natural,Geophysical,Earthquake,Ground movement,,,Chile,CHL,South America,Americas,Chillan region (Concepcion),,Tsunami/Tidal wave,,,,,,8,Richter,-36.305,-72.315,23:32,,1939,1,24,1939,1,24,30000,58500,,,58500,,920000,5.386594238,,,,,
1939,0005,,Natural,Geophysical,Earthquake,Ground movement,,,Ghana,GHA,Western Africa,Africa,Accra,,Tsunami/Tidal wave,,,,,,6,Richter,5.552,-0.628,19:19,,1939,6,22,1939,6,22,22,130,,7500,7630,,,5.386594238,,,,,
1942,0001,,Natural,Geophysical,Earthquake,Ground movement,,,Ecuador,ECU,South America,Americas,Guayaquavil,,,,,,,,,Richter,-0.025,-79.955,21:13,,1942,5,13,1942,5,13,200,,,,,,2500,6.327315241,,,,,
1943,0010,,Natural,Geophysical,Earthquake,Ground movement,,,Chile,CHL,South America,Americas,Illapel,,Tsunami/Tidal wave,,,,,,8,Richter,-31.432,-71.475,12:07,,1943,4,6,1943,4,6,12,35,,,35,,100000,6.701026324,,,,,
1943,0024,,Natural,Geophysical,Earthquake,Ground movement,,,Indonesia,IDN,South-Eastern Asia,Asia,Jogyakarta (Central Java),,,,,,,,7,Richter,-8.591,109.803,23:53,,1943,7,23,1943,7,23,213,2096,14000,,16096,,,6.701026324,,,,,
1944,0002,,Natural,Geophysical,Earthquake,Ground movement,,,Argentina,ARG,South America,Americas,San Juan,,,,,,,,7,Richter,-31.372,68.436,20:49,,1944,1,15,1944,1,15,10000,35000,120000,,155000,,100000,6.817005626,,,,,
1946,0013,,Natural,Geophysical,Earthquake,Ground movement,,,Chile,CHL,South America,Americas,Northern,,Tsunami/Tidal wave,,,,,,8,Richter,-26.5,-70.5,15:18,,1946,8,2,1946,8,2,2,,,,,,,7.551541204,,,,,
1946,0021,,Natural,Geophysical,Earthquake,Ground movement,,,Dominican Republic (the),DOM,Caribbean,Americas,Northeasetrn coast,,Tsunami/Tidal wave,,,,,,8,Richter,19.25,-69,13:51,,1946,8,4,1946,8,4,73,,,,,,,7.551541204,,,,,
1946,0001,,Natural,Geophysical,Earthquake,Ground movement,,,Algeria,DZA,Northern Africa,Africa,"Hodna Mountains, Constantine",,,,,,,,,Richter,35.75,5,03:43,,1946,2,12,1946,2,12,276,,,,,,,7.551541204,,,,,
1949,0010,,Natural,Geophysical,Earthquake,Ground movement,,,Ecuador,ECU,South America,Americas,"Pelileo, Ambato",,"Slide (land, mud, snow, rock)",,,,,,7,Richter,-1.5,-78.2,14:08,,1949,8,5,1949,8,5,6000,,100000,,100000,,20000,9.213911196,,,,,
1949,0005,,Natural,Geophysical,Earthquake,Ground movement,,,Chile,CHL,South America,Americas,"Angol, Traiguan",,Tsunami/Tidal wave,,,,,,7,Richter,-38,-73.5,23:29,,1949,4,19,1949,4,19,35,155,,,155,,39000,9.213911196,,,,,
1949,0015,,Natural,Geophysical,Earthquake,Ground movement,,,Chile,CHL,South America,Americas,Tierra del Fuego,,Tsunami/Tidal wave,,,,,,8,Richter,-54,-71,02:53,,1949,12,17,1949,12,17,6,18,,,18,,5200,9.213911196,,,,,
1950,0008,,Natural,Geophysical,Earthquake,Ground movement,,,India,IND,Southern Asia,Asia,Assam province,,"Slide (land, mud, snow, rock)",Tsunami/Tidal wave,,,,,9,Richter,28.5,96.5,19:39,,1950,8,15,1950,8,15,1500,,,,,,20000,9.317003909,,,,,
1950,0028,,Natural,Geophysical,Earthquake,Ground movement,,,Colombia,COL,South America,Americas,"Santander, Amboledas",,,,,,,,,Richter,7.8,-72.5,21:35,,1950,7,8,1950,7,8,211,,,40000,40000,,5000,9.317003909,,,,,
1952,0010,,Natural,Geophysical,Earthquake,Ground movement,,,Haiti,HTI,Caribbean,Americas,Anse-a-Veau,,,,,,,,,Richter,18.3,73.2,,,1952,10,27,1952,10,27,6,,,,,,20000,10.28349809,,,,,
1953,0012,,Natural,Geophysical,Earthquake,Ground movement,,,Chile,CHL,South America,Americas,"Chillan, Concepcion",,Tsunami/Tidal wave,,,,,,8,Richter,-37.093,-72.866,13:16,,1953,5,6,1953,5,6,12,40,,,40,,500000,10.36081762,,,,,
1953,0054,,Natural,Geophysical,Earthquake,Ground movement,,,Cyprus,CYP,Western Asia,Asia,Paphos,,Tsunami/Tidal wave,,,,,,6,Richter,34.741,32.335,06:06,,1953,9,10,1953,9,10,40,100,,2500,2600,,,10.36081762,,,,,
1953,0001,,Natural,Geophysical,Earthquake,Ground movement,,,Greece,GRC,Southern Europe,Europe,"Zakinthos (Zante), Céphalonie (Ionian Islands)",,Tsunami/Tidal wave,,,,,,7,Richter,38.182,20.942,09:23,,1953,8,12,1953,8,12,476,2412,,138865,141277,,100000,10.36081762,,,,,
1953,0021,,Natural,Geophysical,Earthquake,Ground movement,,,Chile,CHL,South America,Americas,,,,,,,,,7,Richter,-22.1,-68.7,22:05,,1953,12,6,1953,12,6,3,15,,,15,,7310,10.36081762,,,,,
1954,0017,,Natural,Geophysical,Earthquake,Ground movement,,,Algeria,DZA,Northern Africa,Africa,Orleansville,,Tsunami/Tidal wave,,,,,,7,Richter,36.283,1.467,01:04,,1954,9,9,1954,9,9,1250,5000,,129250,134250,,6000,10.39947739,,,,,
1954,0009,,Natural,Geophysical,Earthquake,Ground movement,,,Afghanistan,AFG,Southern Asia,Asia,North Region,,,,,,,,,Richter,36,66,,,1954,6,10,1954,6,10,2000,,,,,,,10.39947739,,,,,
1954,0044,,Natural,Geophysical,Earthquake,Ground movement,,,Greece,GRC,Southern Europe,Europe,Sophades (Karditsa),,,,,,,,7,Richter,39.3,22.2,15:02,,1954,4,30,1954,4,30,31,200,,,200,,3150,10.39947739,,,,,
1955,0038,,Natural,Geophysical,Earthquake,Ground movement,,,China,CHN,Eastern Asia,Asia,"Kangting, Sikang (Sichuan province)",,,,,,,,8,Richter,30,101.8,08:29,,1955,4,14,1955,4,14,39,113,,,113,,,10.34538148,,,,,
1955,0020,,Natural,Geophysical,Earthquake,Ground movement,,,Egypt,EGY,Northern Africa,Africa,Near Cairo,,,,,,,,6,Richter,32.2,29.6,08:09,,1955,9,12,1955,9,12,20,28,,,28,,,10.34538148,,,,,
1956,0037,,Natural,Geophysical,Earthquake,Ground movement,,,Greece,GRC,Southern Europe,Europe,"Santorini, Islands of Amorgos and Astypaiaia, Aegean islands, Crete, Folegrandos",,Tsunami/Tidal wave,Volcanic activity,,,,,8,Richter,36.664,25.957,05:11,,1956,7,9,1956,7,9,53,100,,,100,,,10.50315398,,,,,
1956,0008,,Natural,Geophysical,Earthquake,Ground movement,,,Afghanistan,AFG,Southern Asia,Asia,Kabul,,,,,,,,8,Richter,35.1,67.5,,,1956,6,10,1956,6,10,100,2000,,,2000,,25000,10.50315398,,,,,
1956,0056,,Natural,Geophysical,Earthquake,Ground movement,,,Spain,ESP,Southern Europe,Europe,Grenade (Andalousia),,,,,,,,,Richter,37,-4,,,1956,4,19,1956,4,19,11,70,,,70,,,10.50315398,,,,,
1956,0038,,Natural,Geophysical,Earthquake,Ground movement,,,India,IND,Southern Asia,Asia,"Anjar, Bhuj, Gandhidham, Kandla",,,,,,,,6,Richter,23,70,21:02,,1956,7,21,1956,7,21,113,219,,,219,,,10.50315398,,,,,
1958,0024,,Natural,Geophysical,Earthquake,Ground movement,,,Indonesia,IDN,South-Eastern Asia,Asia,Malang (East Java),,,,,,,,7,Richter,-9.5,112.5,08:42,,1958,10,20,1958,10,20,8,1856,1030,475,3361,,,11.1503436,,,,,
1960,0013,,Natural,Geophysical,Earthquake,Tsunami,,,Chile,CHL,South America,Americas,"Puerto Montt, Valdivia (Arauco peninsula)",,Volcanic activity,Tsunami/Tidal wave,,,,,10,Richter,-38.143,-73.407,15-11,,1960,5,22,1960,5,22,6000,3000,2000000,,2003000,,550000,11.42725138,,,,,
1960,0033,,Natural,Geophysical,Earthquake,Ground movement,,,Algeria,DZA,Northern Africa,Africa,"Melouza, Beni Illmane",,,,,,,,6,Richter,36,4.1,09:13,,1960,2,21,1960,2,21,57,,,1250,1250,,,11.42725138,,,,,
1961,0016,,Natural,Geophysical,Earthquake,Ground movement,,,Ethiopia,ETH,Eastern Africa,Africa,"Wollo, Karakore",,,,,,,,7,Richter,10.4,39.9,02:29,,1961,6,2,1961,6,2,30,,,,,,,11.54960108,,,,,
1962,0044,,Natural,Geophysical,Earthquake,Ground movement,,,Albania,ALB,Southern Europe,Europe,"Fier, Volre",,,,,,,,6,Richter,40.9,19.5,16:30,,1962,3,18,1962,3,18,15,154,,,154,,,11.68805955,,,,,
1962,0030,,Natural,Geophysical,Earthquake,Ground movement,,,Colombia,COL,South America,Americas,"Mistrato, Manizales",,,,,,,,7,Richter,5.173,-76.352,13:53,,1962,7,30,1962,7,30,47,300,,,300,,,11.68805955,,,,,
1964,0016,,Natural,Geophysical,Earthquake,Ground movement,,,Azores Islands,AZO,Southern Europe,Europe,Sao Jorge Isl.,,,,Yes,,,,5,Richter,38.8,-28.4,12:19,,1964,2,18,1964,2,18,,,1000,,1000,,,11.98428136,,,,,
1965,0093,,Natural,Geophysical,Earthquake,Ground movement,,,Indonesia,IDN,South-Eastern Asia,Asia,Sanana Island,,Tsunami/Tidal wave,,,,,,8,Richter,-2.608,-125.952,07:11,,1965,1,24,1965,1,24,71,,15000,,15000,,,12.17425308,,,,,
1965,0016,,Natural,Geophysical,Earthquake,Ground movement,,,Chile,CHL,South America,Americas,"Coquimbo, Santiago (Central Valley)",,,,Yes,,,,7,Richter,-32.522,-71.233,12:33,,1965,3,28,1965,3,28,400,350,20000,,20350,,125000,12.17425308,,,,,
1965,0002,,Natural,Geophysical,Earthquake,Ground movement,,,Algeria,DZA,Northern Africa,Africa,M'sila & Environs,,,,Yes,,,,6,Richter,35.7,4.4,21:38,,1965,1,1,1965,1,1,2,350,37000,12000,49350,,2000,12.17425308,,,,,
1965,0015,,Natural,Geophysical,Earthquake,Ground movement,,,Greece,GRC,Southern Europe,Europe,"(1) Alonisos & Skopelos, (2) C Patras, Corinth, (3) C Peloponnesus",,,,Yes,,,,6,Richter,39.4,24,,,1965,3,9,1965,3,9,38,253,30000,,30253,,8000,12.17425308,,,,,
1966,0090,,Natural,Geophysical,Earthquake,Ground movement,,,Chile,CHL,South America,Americas,Taltal & Catalina,,,,Yes,,,,8,Richter,-25.494,-70.55,04:18,,1966,12,28,1966,12,28,4,6,3000,,3006,,400,12.5413205,,,,,
1966,0026,,Natural,Geophysical,Earthquake,Ground movement,,,Greece,GRC,Southern Europe,Europe,Eurytania region,,,,Yes,,,,6,Richter,39.2,22,04:01,,1966,2,5,1966,2,5,1,50,11000,,11050,,4000,12.5413205,,,,,
1966,0068,,Natural,Geophysical,Earthquake,Ground movement,,,Greece,GRC,Southern Europe,Europe,"(1) Megalopos, (2) Central Greece",,,,Yes,,,,6,Richter,37.5,22.1,16:13,,1966,9,1,1966,9,1,1,123,15000,,15123,,14000,12.5413205,,,,,
1967,0101,,Natural,Geophysical,Earthquake,Ground movement,,,Indonesia,IDN,South-Eastern Asia,Asia,"Makassar Strait, Tinambung (South Sulawesi)",,Tsunami/Tidal wave,,,,,,6,Richter,-3.7,119.3,12:09,,1967,4,11,1967,4,11,71,100,,,100,,,12.88906472,,,,,
1967,0075,,Natural,Geophysical,Earthquake,Ground movement,,,Albania,ALB,Southern Europe,Europe,Shupenze (Albania-Yugo Border),,,,,,,,7,Richter,41.386,20.532,08:23,,1967,11,30,1967,11,30,11,134,,,134,,20000,12.88906472,,,,,
1967,0020,,Natural,Geophysical,Earthquake,Ground movement,,,Colombia,COL,South America,Americas,"Neiva (Huila deparment); Rivera, San Antonio",,,,,,,,7,Richter,2.849,-74.798,10:24,,1967,2,9,1967,2,9,61,200,40000,,40200,,600,12.88906472,,,,,
1967,0131,,Natural,Geophysical,Earthquake,Ground movement,,,France,FRA,Western Europe,Europe,"Arette, Lanne, Montory, Aramits, Haux, Sunhar (Pyrénées-Atlantiques)",,,,,,,,5,Richter,43.2,-0.5,23:07,,1967,8,13,1967,8,13,1,80,,1020,1100,,,12.88906472,,,,,
1967,0032,,Natural,Geophysical,Earthquake,Ground movement,,,Greece,GRC,Southern Europe,Europe,North West Mountains,,,,Yes,,,,6,Richter,39.5,21.2,09:08,,1967,5,1,1967,5,1,9,56,16527,,16583,,5000,12.88906472,,,,,
1967,0102,,Natural,Geophysical,Earthquake,Ground movement,,,Indonesia,IDN,South-Eastern Asia,Asia,"Dampit, Gondang, Trenggalek, Malang (East Java)",,,,,,,,6,Richter,-8.965,113.017,05:14,,1967,2,20,1967,2,20,54,121,,8290,8411,,,12.88906472,,,,,
1967,0077,,Natural,Geophysical,Earthquake,Ground movement,,,India,IND,Southern Asia,Asia,"Maharashtra, Koynana",,,,,,,,7,Richter,17.412,73.885,04:21,,1967,12,11,1967,12,11,177,2272,50000,,52272,,400,12.88906472,,,,,
1968,0032,,Natural,Geophysical,Earthquake,Ground movement,,,Greece,GRC,Southern Europe,Europe,"Limnos, Agios Efstratios",,Tsunami/Tidal wave,,Yes,,,,7,Richter,39.368,24.957,00:45,,1968,2,20,1968,2,20,19,18,4000,3600,7618,,600,13.43965669,,,,,
1968,0077,,Natural,Geophysical,Earthquake,Ground movement,,,Australia,AUS,Australia and New Zealand,Oceania,"Perth, Meckering, Northam, Cunderdin",,,,Yes,,,,7,Richter,-31.566,117.071,12:58,,1968,10,14,1968,10,14,,16,3874,400,4290,,2600,13.43965669,,,,,
1968,0064,,Natural,Geophysical,Earthquake,Tsunami,,,Indonesia,IDN,South-Eastern Asia,Asia,Donggala,Earthquake,,,,,,,8,Richter,0.157,119.802,05:14,,1968,8,15,1968,8,15,200,,,,,,,13.43965669,,,,,
1969,0082,,Natural,Geophysical,Earthquake,Ground movement,,,China,CHN,Eastern Asia,Asia,"Tientsin (Swatow province), Yangjiang county (Huangdong province)",,,,,,,,6,Richter,22.317,111.8,06:49,,1969,7,26,1969,7,26,3000,,,53810,53810,,,14.17378236,,,,,
1969,0061,,Natural,Geophysical,Earthquake,Ground movement,,,Ethiopia,ETH,Eastern Africa,Africa,Sardo,,,,Yes,,,,6,Richter,11.9,41.21,12:15,,1969,3,29,1969,3,29,24,165,,420,585,,320,14.17378236,,,,,
1969,0052,,Natural,Geophysical,Earthquake,Tsunami,,,Indonesia,IDN,South-Eastern Asia,Asia,"Parasanga, Paletoang (Sulawesi)",Earthquake,,,,,,,7,Richter,-3.201,118.904,07:36,,1969,2,23,1969,2,23,64,97,,6435,6532,,,14.17378236,,,,,
1970,0010,,Natural,Geophysical,Earthquake,Ground movement,,,China,CHN,Eastern Asia,Asia,Yunnan province,,,,,,,,7,Richter,24.185,102.543,,,1970,1,4,1970,1,4,10000,,,,,,,15.00128211,,,,,
1970,0051,,Natural,Geophysical,Earthquake,Ground movement,,,Colombia,COL,South America,Americas,Pereira (Bahia Solano),,,,,,,,7,Richter,6.375,-77.438,22:38,,1970,9,25,1970,9,25,,6,3000,,3006,,400,15.00128211,,,,,
1970,0067,,Natural,Geophysical,Earthquake,Ground movement,,,Ecuador,ECU,South America,Americas,Loja province,,,,Yes,,,,7,Richter,-4.026,-80.542,23:34,,1970,12,9,1970,12,9,29,120,60000,27992,88112,,4000,15.00128211,,,,,
1970,0112,,Natural,Geophysical,Earthquake,Ground movement,,,India,IND,Southern Asia,Asia,Broach,,,,,,,,5,Richter,21.7,73,07:22,,1970,3,23,1970,3,23,26,200,,,200,,,15.00128211,,,,,
1971,0042,,Natural,Geophysical,Earthquake,Ground movement,,,Chile,CHL,South America,Americas,"Valparaiso, Salamnca, Coquimbo",,Tsunami/Tidal wave,,Yes,,,,8,Richter,-32.601,-71.076,00:03,,1971,7,9,1971,7,9,85,451,2348522,,2348973,,236400,15.6452573,,,,,
1973,0024,,Natural,Geophysical,Earthquake,Ground movement,,,Costa Rica,CRI,Central America,Americas,"South Laguna Arenal, Tilaran, Arenal, Rio Chiquito",,,,Yes,,,,7,Richter,10.679,-84.759,02:34,,1973,4,14,1973,4,14,21,98,3563,84,3745,,200,17.15536031,,,,,
1974,0025,,Natural,Geophysical,Earthquake,Ground movement,,,China,CHN,Eastern Asia,Asia,"Yunnan, Sichuan",,,,,,,,7,Richter,28.4,104.1,02:25,,1974,5,11,1974,5,11,20000,,,,,,,19.05185393,,,,,
1975,0017,,Natural,Geophysical,Earthquake,Ground movement,,,China,CHN,Eastern Asia,Asia,Anshan Liaoning province,,,,,,,,7,Richter,40.641,122.58,20:06,,1975,2,4,1975,2,4,2000,,,,,,,20.79379863,,,,,
1975,0014,,Natural,Geophysical,Earthquake,Ground movement,,,India,IND,Southern Asia,Asia,"Kinnaur district, Kashmir; Himachal Pradesh",,,,,,,,7,Richter,32.455,78.43,13:32,,1975,1,19,1975,1,19,47,,,,,,,20.79379863,,,,,
1976,0028,,Natural,Geophysical,Earthquake,Ground movement,,,Afghanistan,AFG,Southern Asia,Asia,Shamagan province (Hindu Kush),,,,,,,,6,Richter,36.61,67.79,17:33,,1976,3,19,1976,3,19,50,,90000,,90000,,,21.98835663,,,,,
1976,0050,,Natural,Geophysical,Earthquake,Ground movement,,,China,CHN,Eastern Asia,Asia,"Tangshan, Pek.,Tientsin",,,,,,,,8,Richter,39.57,117.978,03:42,,1976,7,28,1976,7,28,242000,164000,,,164000,,5600000,21.98835663,,,,,
1976,0055,,Natural,Geophysical,Earthquake,Ground movement,,,China,CHN,Eastern Asia,Asia,"Szechwan, Chengtu",,,,,No,No,,,Richter,30.37 N,104.06 E,,,1976,8,16,1976,8,16,,,,,,,,21.98835663,,,,,
1976,0033,,Natural,Geophysical,Earthquake,Ground movement,,,Ecuador,ECU,South America,Americas,Esmeraldas,,,,Yes,,,,7,Richter,0.782,79.804,02:08,,1976,4,9,1976,4,9,10,,,,,,4000,21.98835663,,,,,
1976,0068,,Natural,Geophysical,Earthquake,Ground movement,,,Ecuador,ECU,South America,Americas,Cotopaxi Pinchincha province,,,,,No,No,,,Richter,0.14 S,78.30 W,,,1976,10,4,1976,10,4,10,,,20000,20000,,20000,21.98835663,,,,,
1976,0077,,Natural,Geophysical,Volcanic activity,Ash fall,,Cotopaxi,Ecuador,ECU,South America,Americas,Cotopaxi,,,,,,,,,,-0.677,-78.436,,,1976,12,,1976,12,,1,,20000,5000,25000,,,21.98835663,,,,,
1976,0024,,Natural,Geophysical,Earthquake,Ground movement,,,Guatemala,GTM,Central America,Americas,"Guatemala city, Chimaltenango",,,,Yes,,,,8,Richter,15.324,-89.101,03:01,,1976,2,4,1976,2,4,23000,77000,3750000,1166000,4993000,,1000000,21.98835663,,,,,
1976,0043,,Natural,Geophysical,Earthquake,Ground movement,,,Indonesia,IDN,South-Eastern Asia,Asia,Wanena Region (Irian Jaya),,,,Yes,,,,7,Richter,-4.603,140.091,02:18,,1976,6,26,1976,6,26,420,,15000,,15000,,25000,21.98835663,,,,,
1976,0047,,Natural,Geophysical,Earthquake,Ground movement,,,Indonesia,IDN,South-Eastern Asia,Asia,Bali,,,,Yes,,,,7,Richter,-8.17,114.888,14:13,,1976,7,14,1976,7,14,573,4755,450000,,454755,,195000,21.98835663,,,,,
1976,0071,,Natural,Geophysical,Earthquake,Ground movement,,,Indonesia,IDN,South-Eastern Asia,Asia,"Irian Jaya, Jayawijaya (New guinea)",,,,,,,,7,Richter,-4.517,139.918,09:51,,1976,10,29,1976,10,29,133,,7000,,7000,,,21.98835663,,,,,
1977,0106,,Natural,Geophysical,Earthquake,Ground movement,,,Indonesia,IDN,South-Eastern Asia,Asia,"Sumbaya, Lombok, Sumba (Nusa Tengarra Is.)",,Tsunami/Tidal wave,,,,,,8,Richter,-11.164,118.378,,,1977,8,19,1977,8,19,185,75,3900,,3975,,1200,23.41797075,,,,,
1977,0137,,Natural,Geophysical,Earthquake,Ground movement,,,Argentina,ARG,South America,Americas,"Cardoba, Buenos Aires, Caucete, Bragado San Juan province",,,,,,,,7,Richter,-31.028,-67.767,06:26,,1977,11,23,1977,11,23,70,100,,40000,40100,,80000,23.41797075,,,,,
1977,0048,,Natural,Geophysical,Earthquake,Ground movement,,,Bulgaria,BGR,Eastern Europe,Europe,"Svishtov, Ruse",,,,,No,No,,6,Richter,45.77 N,26.76 E,,,1977,3,4,1977,3,4,20,165,,,165,,,23.41797075,,,,,
1978,0081,,Natural,Geophysical,Earthquake,Ground movement,,,Greece,GRC,Southern Europe,Europe,Thessaloniki area,,,,,,,,6,Richter,40.739,23.229,22:03,,1978,6,20,1978,6,20,50,100,600000,,600100,,250000,25.2049907,,,,,
1900,0007,,Natural,Biological,Epidemic,Viral disease,,Gastroenteritis,Jamaica,JAM,Caribbean,Americas,Porus,,,,,,,,,Vaccinated,33,,,,1900,1,13,1900,1,13,30,,,,,,,3.221647271,,,,,
1901,0004,,Natural,Geophysical,Earthquake,Tsunami,,,Japan,JPN,Eastern Asia,Asia,Sanriku,Earthquake,Tsunami/Tidal wave,,,,,,8,Richter,40.5,142.5,03:33,,1901,8,10,1901,8,10,18,,,24,24,,,3.221647271,,,,,
1902,0011,,Natural,Geophysical,Earthquake,Ground movement,,,Soviet Union,SUN,Russian Federation,Europe,"Andishan,Tashkent (Uzbekistan)",,,,,,,,6,Richter,40.8,72.3,09:44,,1902,12,16,1902,12,16,4562,,125112,,125112,,,3.350513162,,,,,
1903,0007,,Natural,Geophysical,Earthquake,Ground movement,,,Turkey,TUR,Western Asia,Asia,Malazgirt,,,,,,,,6,Richter,39.09,42.3,02:46,,1903,4,29,1903,4,29,3560,,60000,,60000,,,3.479379053,,,,,
1905,0007,,Natural,Geophysical,Earthquake,Tsunami,,,Japan,JPN,Eastern Asia,Asia,Fukushima,Earthquake,Tsunami/Tidal wave,,,,,,7,Richter,37.4,142.6,01:21,,1907,7,7,1907,7,7,41,,,,,,,3.479379053,,,,,
1905,0001,,Natural,Geophysical,Earthquake,Ground movement,,,Italy,ITA,Southern Europe,Europe,"MONTELEONE, TROPEA, MONTE PORO (Calabria)",,,,,,,,7,Richter,38.67,16.07,01:43,,1905,9,8,1905,9,8,557,2000,,20100,22100,,,3.479379053,,,,,
1906,0013,,Natural,Geophysical,Earthquake,Ground movement,,,United States of America (the),USA,Northern America,Americas,San Francisco (California),,Fire,,,,,,8,Richter,37.67,-122.48,05:12,,1906,4,18,1906,4,18,700,,,84564,84564,180000,524000,3.479379053,,,,,
1906,0012,,Natural,Geophysical,Volcanic activity,Ash fall,,Mt. Vesuve,Italy,ITA,Southern Europe,Europe,,,,,,,,,,,40.821,14.426,,,1906,4,18,1906,4,18,700,,,,,,,3.479379053,,,,,
1906,0001,,Natural,Geophysical,Earthquake,Ground movement,,,Taiwan (Province of China),TWN,Eastern Asia,Asia,"Kagi, Toroku",,,,,,,,7,Richter,23.6,170.5,06:42,,1906,3,17,1906,3,17,1258,145,,20307,20452,,,3.479379053,,,,,
1907,0004,,Natural,Geophysical,Earthquake,Ground movement,,,Jamaica,JAM,Caribbean,Americas,Kingston,,,,,,,,7,Richter,18.2,-76.8,16:28,,1907,1,14,1907,1,14,1200,,90000,,90000,,30000,3.608244944,,,,,
1908,0007,,Natural,Geophysical,Earthquake,Ground movement,,,Italy,ITA,Southern Europe,Europe,"Messina, Regio, Calabria, Sicilia",,Tsunami/Tidal wave,,,,,,7,Richter,38.17,15.58,05:20,,1908,12,28,1908,12,28,75000,,150000,,150000,,116000,3.479379053,,,,,
1909,0007,,Natural,Geophysical,Earthquake,Ground movement,,,Iran (Islamic Republic of),IRN,Southern Asia,Asia,"Boroujerd, Silakor",,,,,,,,8,Richter,33.55,48.48,16:18,,1909,1,23,1909,1,23,5000,,,,,,,3.479379053,,,,,
1909,0014,,Natural,Geophysical,Earthquake,Ground movement,,,Morocco,MAR,Northern Africa,Africa,"Tetouan, Romars",,,,,,,,,Richter,35.34,-5.22,,,1909,1,29,1909,1,29,100,,,,,,,3.479379053,,,,,
1912,0006,,Natural,Geophysical,Earthquake,Ground movement,,,Turkey,TUR,Western Asia,Asia,"Murefte Sarkoy, marmara sea",,Tsunami/Tidal wave,,,,,,8,Richter,40.41,27.15,04:29,,1912,8,9,1912,8,9,923,1575,,16620,18195,,,3.737110835,,,,,
1913,0009,,Natural,Geophysical,Earthquake,Ground movement,,,Peru,PER,South America,Americas,"Albancay, Amyares, Casaya, Soraya",,,,,,,,6,Richter,-14.2,-72.9,16:33,,1913,11,4,1913,11,4,150,,,,,,,3.827316958,,,,,
1913,0008,,Natural,Geophysical,Earthquake,Ground movement,,,Romania,ROU,Eastern Europe,Europe,Tirnovo,,,,,,,,7,Richter,43.5,25.5,12:33,,1913,6,14,1913,6,14,,,,,,,,3.827316958,,,,,
1914,0025,,Natural,Geophysical,Earthquake,Ground movement,,,Japan,JPN,Eastern Asia,Asia,Akita Senboku,,,,,,,,7,Richter,39.2,139.8,05:00,,1914,3,16,1914,3,16,94,,,1920,1920,,,3.878863315,,,,,
1915,0002,,Natural,Geophysical,Earthquake,Ground movement,,,Italy,ITA,Southern Europe,Europe,"Avezzano, Marsica (Abruzze)",,,,,,,,8,Richter,42.02,13.26,07:52,,1915,1,13,1915,1,13,29980,,,,,,60000,3.917523082,,,,,
1915,0004,,Natural,Geophysical,Earthquake,Ground movement,,,United States of America (the),USA,Northern America,Americas,El Centro (California),,,,,,,,6,Richter,32.47,-115.33,20:56,,1915,6,22,1915,6,22,6,,,,,,1000,3.917523082,,,,,
1918,0011,,Natural,Geophysical,Earthquake,Ground movement,,,Philippines (the),PHL,South-Eastern Asia,Asia,"Mindanao, South Cotabato",,Tsunami/Tidal wave,"Slide (land, mud, snow, rock)",,,,,8,Richter,8.29,124.4,20:18,,1918,8,15,1918,8,15,100,,,,,,,5.824738266,,,,,
1918,0008,,Natural,Geophysical,Earthquake,Ground movement,,,Puerto Rico,PRI,Caribbean,Americas,Mona Passage,,Tsunami/Tidal wave,,,,,,8,Richter,18.06,-67.54,10:14,,1918,10,11,1918,10,11,116,,,,,,29000,5.824738266,,,,,
1920,0014,,Natural,Geophysical,Earthquake,Ground movement,,,Italy,ITA,Southern Europe,Europe,"Carrara, Farfagnana",,,,,,,,6,Richter,44.3,10.3,06:55,,1920,9,7,1920,9,7,1400,,,,,,,7.757726629,,,,,
1923,0006,,Natural,Geophysical,Earthquake,Ground movement,,,Japan,JPN,Eastern Asia,Asia,"Kanto plaine (Yokohama,Tokyo)",,Fire,Tsunami/Tidal wave,,,,,8,Richter,35.413,139.298,11:58,,1923,9,1,1923,9,1,143000,103733,100000,,203733,,600000,6.597933612,,,,,
1923,0020,,Natural,Geophysical,Earthquake,Ground movement,,,Iran (Islamic Republic of),IRN,Southern Asia,Asia,Turbat-Haklari,,,,,,,,6,Richter,35.2,59.2,01:51,,1923,5,26,1923,5,26,2200,,,,,,,6.597933612,,,,,
1925,0005,,Natural,Geophysical,Earthquake,Ground movement,,,United States of America (the),USA,Northern America,Americas,Santa Barbara (California),,,,,No,No,,6,Richter,34.25 N,119.41 W,,,1925,6,29,1925,6,29,13,,,,,,8000,6.791232448,,,,,
1927,0007,,Natural,Geophysical,Earthquake,Ground movement,,,Jordan,JOR,Western Asia,Asia,"Nablus, Damiya",,,,,,,,6,Richter,31.922,35.633,16:04,,1927,7,11,1927,7,11,268,,,,,,,6.726799502,,,,,
1927,0004,,Natural,Geophysical,Earthquake,Ground movement,,,Japan,JPN,Eastern Asia,Asia,"Tango, Honshu",,,,,,,,7,Richter,35.632,135.013,18:27,,1927,3,7,1927,3,7,3022,3295,29463,46782,79540,,40000,6.726799502,,,,,
1928,0005,,Natural,Geophysical,Earthquake,Ground movement,,,Turkey,TUR,Western Asia,Asia,Torbah-Izmir,,,,,,,,,Richter,38.25 N,27.10 E,,,1928,3,30,1928,3,30,50,209,,,209,,,6.649479968,,,,,
1929,0013,,Natural,Geophysical,Earthquake,Ground movement,,,New Zealand,NZL,Australia and New Zealand,Oceania,Murchison,,"Slide (land, mud, snow, rock)",Tsunami/Tidal wave,,,,,8,Richter,-41.55,172.25,10:47,,1929,6,17,1929,6,17,17,,,,,,,6.649479968,,,,,
1929,0012,,Natural,Geophysical,Earthquake,Ground movement,,,Iran (Islamic Republic of),IRN,Southern Asia,Asia,"Kopet-Dagh, Beinin",,,,,,,,7,Richter,37.8,57.8,19:07,,1929,5,1,1929,5,1,3253,1121,,,1121,,,6.649479968,,,,,
1930,0006,,Natural,Geophysical,Earthquake,Ground movement,,,Myanmar,MMR,South-Eastern Asia,Asia,"Pegu, Rangoon",,Tsunami/Tidal wave,,,,,,8,Richter,17.86,96.43,20:15,,1930,5,5,1930,5,5,500,,,,,,,6.469067721,,,,,
1930,0025,,Natural,Geophysical,Earthquake,Ground movement,,,Iran (Islamic Republic of),IRN,Southern Asia,Asia,Salmas,,,,,,,,7,Richter,38.087,44.781,19:34,,1930,5,6,1930,5,6,1360,,,,,,,6.469067721,,,,,
1930,0008,,Natural,Geophysical,Earthquake,Ground movement,,,Italy,ITA,Southern Europe,Europe,"Irpina, Naples",,,,,,,,6,Richter,40.922,15.377,02:08,,1930,7,23,1930,7,23,1883,,10000,,10000,,5000,6.469067721,,,,,
1930,0012,,Natural,Geophysical,Earthquake,Ground movement,,,Japan,JPN,Eastern Asia,Asia,Idu (Honshu),,,,,,,,7,Richter,35.05,139.129,04:02,,1930,11,26,1930,11,26,259,1825,,24297,26122,,,6.469067721,,,,,
1930,0017,,Natural,Geophysical,Earthquake,Ground movement,,,Myanmar,MMR,South-Eastern Asia,Asia,"Nyauglebin, Toungoo, Pyu",,,,,,,,7,Richter,18.233,96.298,01:21,,1930,12,4,1930,12,4,36,,,,,,,6.469067721,,,,,
1931,0001,,Natural,Geophysical,Earthquake,Ground movement,,,Nicaragua,NIC,Central America,Americas,Managua,,,,,,,,6,Richter,13.2,-85.7,10:16,,1931,3,31,1931,3,31,1000,,,,,,15000,5.889171212,,,,,
1931,0004,,Natural,Geophysical,Earthquake,Ground movement,,,New Zealand,NZL,Australia and New Zealand,Oceania,"Wairoa, Hastings, Napier Hawke's Bay",,,,,,,,7,Richter,-39.659,176.42,10:47,,1931,2,3,1931,2,3,256,,11000,,11000,,25000,5.889171212,,,,,
1931,0011,,Natural,Geophysical,Earthquake,Tsunami,,,Solomon Islands,SLB,Melanesia,Oceania,San Cristobal isl.,Earthquake,,,,,,,8,Richter,11.117,161.11,06:13,,1931,10,4,1931,10,4,50,,,,,,,5.889171212,,,,,
1933,0007,,Natural,Geophysical,Earthquake,Ground movement,,,United States of America (the),USA,Northern America,Americas,Long Beach (California),,Tsunami/Tidal wave,,,,,,6,Richter,33.62,117.97,17:54,,1933,3,10,1933,3,10,116,,,,,,38500,5.012883154,,,,,
1933,0001,,Natural,Geophysical,Earthquake,Tsunami,,,Japan,JPN,Eastern Asia,Asia,Sanriku,Earthquake,,,,,,,8,Richter,39.224,144.622,02:1,,1933,3,3,1933,3,3,3000,,,,,,,5.012883154,,,,,
1935,0005,,Natural,Geophysical,Earthquake,Ground movement,,,Pakistan,PAK,Southern Asia,Asia,Quetta (Baluchistan),,Tsunami/Tidal wave,,,,,,8,Richter,29.5,66.8,03.02,,1935,5,31,1935,5,31,60000,25000,,,25000,,,5.309274703,,,,,
1935,0003,,Natural,Geophysical,Earthquake,Ground movement,,,Taiwan (Province of China),TWN,Eastern Asia,Asia,"Taihoku, Taichu,n Mialoi",,,,,,,,6,Richter,24.3,124.3,,,1935,4,21,1935,4,21,3276,12053,,89535,101588,,,5.309274703,,,,,
1935,0006,,Natural,Geophysical,Earthquake,Ground movement,,,Taiwan (Province of China),TWN,Eastern Asia,Asia,Xiinzhu,,,,,,,,7,Richter,24.6,120.8,,,1935,7,17,1935,7,17,2746,6004,,150000,156004,,,5.309274703,,,,,
1938,0002,,Natural,Geophysical,Earthquake,Ground movement,,,Turkey,TUR,Western Asia,Asia,Kirsehir,,,,,,,,7,Richter,39.508,33.872,13:59,,1938,4,19,1938,4,19,149,800,,,800,,,5.451027183,,,,,
1939,0010,,Natural,Geophysical,Earthquake,Ground movement,,,Turkey,TUR,Western Asia,Asia,Erzincan (Anatolia),,Tsunami/Tidal wave,,,,,,8,Richter,39.771,39.57,02:57,,1939,12,27,1939,12,27,32962,,,,,,20000,5.386594238,,,,,
1939,0008,,Natural,Geophysical,Earthquake,Ground movement,,,Turkey,TUR,Western Asia,Asia,"Erzican, Tercan region",,,,,,,,6,Richter,39.7,10.4,11:43,,1939,11,21,1939,11,21,13,,,,,,,5.386594238,,,,,
1939,0023,,Natural,Geophysical,Earthquake,Ground movement,,,Turkey,TUR,Western Asia,Asia,Dikili,,,,,,,,6,Richter,39.209,27.164,03:36,,1939,9,22,1939,9,22,60,68,,,68,,,5.386594238,,,,,
1940,0009,,Natural,Geophysical,Earthquake,Ground movement,,,Peru,PER,South America,Americas,Callao,,Tsunami/Tidal wave,,,,,,8,Richter,-10.5,-77,11:33,,1940,5,24,1940,5,24,179,3500,,,3500,,,5.425254005,,,,,
1940,0001,,Natural,Geophysical,Earthquake,Ground movement,,,Romania,ROU,Eastern Europe,Europe,Bucharest,,,,,,,,7,Richter,45.8,26.8,03:39,,1940,11,10,1940,11,10,980,,,,,,10000,5.425254005,,,,,
1940,0007,,Natural,Geophysical,Earthquake,Ground movement,,,Turkey,TUR,Western Asia,Asia,"Develi-Erciyes, Kayseri",,,,,,,,,Richter,38.4,35.5,,,1940,2,20,1940,2,20,37,,,,,,,5.425254005,,,,,
1940,0008,,Natural,Geophysical,Earthquake,Ground movement,,,United States of America (the),USA,Northern America,Americas,Imperial Valley (California),,,,Yes,,,,7,Richter,32.733,-115.5,20:36,,1940,5,18,1940,5,18,9,,,,,,33000,5.425254005,,,,,
1941,0016,,Natural,Geophysical,Earthquake,Ground movement,,,Myanmar,MMR,South-Eastern Asia,Asia,Myanmar-China border region,,,,,,,,7,Richter,22.408,99.814,21:48,,1941,12,26,1941,12,26,15,,,,,,,5.695872376,,,,,
1942,0011,,Natural,Geophysical,Earthquake,Ground movement,,,Turkey,TUR,Western Asia,Asia,"Niksar, Erbaa",,,,,,,,7,Richter,40.87,36.732,17:03,,1942,12,20,1942,12,20,3000,,,,,,,6.327315241,,,,,
1943,0027,,Natural,Geophysical,Earthquake,Ground movement,,,Japan,JPN,Eastern Asia,Asia,Tottori (Honshu Isl.),,,,,,,,7,Richter,35.448,133.993,17:37,,1943,9,10,1943,9,10,1400,,,23217,23217,,,6.701026324,,,,,
1943,0007,,Natural,Geophysical,Earthquake,Ground movement,,,Peru,PER,South America,Americas,"Yanaoca, Pampamarca",,,,,,,,5,Richter,-14.2,-71.5,00:01,,1943,1,30,1943,1,30,200,,,,,,,6.701026324,,,,,
1943,0014,,Natural,Geophysical,Earthquake,Ground movement,,,Turkey,TUR,Western Asia,Asia,"Ladik, Samsun, Havza",,,,,,,,8,Richter,40.916,33.562,01:20,,1943,11,27,1943,11,27,4020,5000,,,5000,,40000,6.701026324,,,,,
1944,0026,,Natural,Geophysical,Earthquake,Tsunami,,,Japan,JPN,Eastern Asia,Asia,"Tonankai, Hondo",,Tsunami/Tidal wave,,,,,,8,Richter,33.682,36.204,13:35,,1944,12,7,1944,12,7,1223,2135,,78438,80573,,,6.817005626,,,,,
1944,0044,,Natural,Geophysical,Volcanic activity,Ash fall,,Mt. Vesuve,Italy,ITA,Southern Europe,Europe,Napoli,,,,,,,,,,40.821,14.426,,,1944,3,18,1944,3,18,26,,,14000,14000,,,6.817005626,,,,,
1944,0003,,Natural,Geophysical,Earthquake,Ground movement,,,Turkey,TUR,Western Asia,Asia,Gerede (West Anatolia),,,,,,,,8,Richter,40.696,32.992,06:22,,1944,2,1,1944,2,1,3959,,,,,,,6.817005626,,,,,
1944,0010,,Natural,Geophysical,Earthquake,Ground movement,,,Turkey,TUR,Western Asia,Asia,Ayvalik Edremit,,,,,,,,7,Richter,39.502,26.596,05:34,,1944,10,6,1944,10,6,27,,,,,,,6.817005626,,,,,
1945,0015,,Natural,Geophysical,Earthquake,Ground movement,,,Japan,JPN,Eastern Asia,Asia,"Mikawa (Near Nagoya, Honshu Isl.)",,Tsunami/Tidal wave,,,,,,7,Richter,34.612,137.064,03:38,,1945,1,13,1945,1,13,2306,896,,21663,22559,,,6.971644695,,,,,
1945,0007,,Natural,Geophysical,Earthquake,Ground movement,,,Pakistan,PAK,Southern Asia,Asia,Makran,,Tsunami/Tidal wave,,,,,,8,Richter,24.927,63.601,03:26,,1945,11,28,1945,11,28,4000,,,,,,25000,6.971644695,,,,,
1946,0015,,Natural,Geophysical,Earthquake,Ground movement,,,Japan,JPN,Eastern Asia,Asia,"Nankaido, Tonankai (Honshu Isl.)",,Tsunami/Tidal wave,,,,,,8,Richter,33.116,135.895,04:19,,1946,12,21,1946,12,21,2000,,,,,,,7.551541204,,,,,
1946,0010,,Natural,Geophysical,Earthquake,Tsunami,,,United States of America (the),USA,Northern America,Americas,"Alaska, Hawi and California",Earthquake,Tsunami/Tidal wave,,,,,,9,Richter,53.492,-162.832,03:29,,1946,4,1,1946,4,1,165,,,,,,25000,7.551541204,,,,,
1946,0014,,Natural,Geophysical,Earthquake,Ground movement,,,Peru,PER,South America,Americas,"Ancash, Quiches, Joicaibamba, Cerro Angaschaj, Cerro Sillapata",,,,,,,,7,Richter,-8.41,-77.535,12:42,,1946,11,10,1946,11,10,1400,,,,,,,7.551541204,,,,,
1946,0023,,Natural,Geophysical,Earthquake,Ground movement,,,Soviet Union,SUN,Russian Federation,Europe,Turkmenistan,,,,,,,,7,Richter,39.826,54.648,,,1946,11,4,1946,11,4,400,,,,,,,7.551541204,,,,,
1946,0012,,Natural,Geophysical,Earthquake,Ground movement,,,Turkey,TUR,Western Asia,Asia,"Varto-Hinis, Ustukran (Eastern Turkey)",,,,,,,,6,Richter,39.3,41.2,06:12,,1946,5,31,1946,5,31,840,,,,,,,7.551541204,,,,,
1947,0001,,Natural,Geophysical,Earthquake,Ground movement,,,Iran (Islamic Republic of),IRN,Southern Asia,Asia,Dustabad,,,,,,,,7,Richter,33.621,58.643,15:58,,1947,9,23,1947,9,23,400,,,,,,,8.646901276,,,,,
1947,0013,,Natural,Geophysical,Earthquake,Ground movement,,,Peru,PER,South America,Americas,"Satipo, Andamarca, Acpbamba, La Merced, Victoc",,,,,,,,8,Richter,-10.973,-74.725,09:58,,1947,11,1,1947,11,1,233,,,,,,,8.646901276,,,,,
1948,0005,,Natural,Geophysical,Earthquake,Ground movement,,,Japan,JPN,Eastern Asia,Asia,Fukui,,,,,,,,7,Richter,36.5,136,16:13,,1948,6,28,1948,6,28,5131,11000,,315000,326000,,1000000,9.304117319,,,,,
1948,0014,,Natural,Geophysical,Earthquake,Ground movement,,,Philippines (the),PHL,South-Eastern Asia,Asia,"Panay, Iloilo city, Antique",,,,,,,,8,Richter,10.5,122,01:46,,1948,1,25,1948,1,25,72,,,,,,3500,9.304117319,,,,,
1948,0011,,Natural,Geophysical,Earthquake,Ground movement,,,Soviet Union,SUN,Russian Federation,Europe,Ashkabat (Turkmenistan),,,,,,,,7,Richter,37.95,58.32,01:12,,1948,10,5,1948,10,5,110000,,,,,,25000,9.304117319,,,,,
1949,0008,,Natural,Geophysical,Earthquake,Ground movement,,,Soviet Union,SUN,Russian Federation,Europe,Tadzhik (Tajikistan),,,,,,,,7,Richter,39.2,70.8,08:53,,1949,7,10,1949,7,10,3500,,,,,,,9.213911196,,,,,
1949,0019,,Natural,Geophysical,Earthquake,Ground movement,,,Turkey,TUR,Western Asia,Asia,Karliova (Anatolia),,,,,,,,7,Richter,39,40.5,21:43,,1949,8,17,1949,8,17,320,355,,,355,,,9.213911196,,,,,
1949,0006,,Natural,Geophysical,Earthquake,Ground movement,,,United States of America (the),USA,Northern America,Americas,"Puget Sound, Olympia (Washington state)",,,,,,,,7,Richter,47.167,-122.617,12:55,,1949,4,13,1949,4,13,8,,,,,,25000,9.213911196,,,,,
1950,0005,,Natural,Geophysical,Earthquake,Ground movement,,,Peru,PER,South America,Americas,Cusco,,,,,,,,6,Richter,-13.5,-72,13:37,,1950,5,21,1950,5,21,83,200,,,200,,,9.317003909,,,,,
1951,0038,,Natural,Geophysical,Earthquake,Ground movement,,,Nicaragua,NIC,Central America,Americas,Potosi,,Tsunami/Tidal wave,,,,,,6,Richter,13,-87.5,17:08,,1951,8,3,1951,8,3,500,,,,,,,10.05153949,,,,,
1951,0012,,Natural,Geophysical,Earthquake,Ground movement,,,El Salvador,SLV,Central America,Americas,"Jucuapa, Chinameca",,,,,,,,7,Richter,13.3,-87.8,17:08,,1951,5,6,1951,5,6,1100,,,,,,23000,10.05153949,,,,,
1951,0015,,Natural,Geophysical,Earthquake,Ground movement,,,Turkey,TUR,Western Asia,Asia,Kursunlu-Ilgaz,,,,,,,,7,Richter,40.8,33.4,21:33,,1951,8,13,1951,8,13,54,150,,,150,,,10.05153949,,,,,
1952,0022,,Natural,Geophysical,Earthquake,Ground movement,,,Japan,JPN,Eastern Asia,Asia,Hokkaido Isl.,,Tsunami/Tidal wave,,,,,,8,Richter,42.084,143.899,10:22,,1952,3,4,1952,3,4,33,200,,,200,,,10.28349809,,,,,
1952,0036,,Natural,Geophysical,Earthquake,Tsunami,,,Soviet Union,SUN,Russian Federation,Europe,"Kamchatka Peninsula, Kuril Isl. (Russian Federation)",Earthquake,,,,,,,,Richter,52.623,159.779,04:58,9,1952,11,5,1952,11,5,,,,,,,,10.28349809,,,,,
1952,0009,,Natural,Geophysical,Earthquake,Ground movement,,,Turkey,TUR,Western Asia,Asia,"Adana-Misis, Ceyhan",,,,,,,,5,Richter,36.5,35.5,,,1952,10,22,1952,10,22,20,,,,,,,10.28349809,,,,,
1952,0014,,Natural,Geophysical,Earthquake,Ground movement,,,Turkey,TUR,Western Asia,Asia,Hasankale (Erzurum province),,,,,,,,6,Richter,39.9,41.7,08:03,,1952,1,3,1952,1,3,103,250,,,250,,,10.28349809,,,,,
1952,0004,,Natural,Geophysical,Earthquake,Ground movement,,,United States of America (the),USA,Northern America,Americas,Kern county (California),,,,,,,,8,Richter,34.958,-118.998,04:52,,1952,7,21,1952,7,21,12,200,,,200,,60000,10.28349809,,,,,
1952,0006,,Natural,Geophysical,Earthquake,Ground movement,,,United States of America (the),USA,Northern America,Americas,"Bakersfield, Kern County (California)",,,,,,,,6,Richter,35.333,-118.917,15:41,,1952,8,22,1952,8,22,2,,,270,270,,10000,10.28349809,,,,,
1953,0009,,Natural,Geophysical,Earthquake,Ground movement,,,Iran (Islamic Republic of),IRN,Southern Asia,Asia,Torud,,,,,,,,7,Richter,35.385,54.979,11:15,,1953,2,12,1953,2,12,970,,,,,,,10.36081762,,,,,
1953,0022,,Natural,Geophysical,Earthquake,Ground movement,,,Peru,PER,South America,Americas,Tumbes,,,,,,,,7,Richter,-3.552,-80.636,12:31,,1953,12,12,1953,12,12,9,20,,1000,1020,,,10.36081762,,,,,
1953,0010,,Natural,Geophysical,Earthquake,Ground movement,,,Turkey,TUR,Western Asia,Asia,"Canakkale, Balikesir, Yenice, Onon",,,,,,,,7,Richter,40.175,27.648,22:06,,1953,3,18,1953,3,18,1200,,50000,,50000,,3570,10.36081762,,,,,
1954,0031,,Natural,Geophysical,Earthquake,Ground movement,,,Philippines (the),PHL,South-Eastern Asia,Asia,"Luzon, Sorsogon, Bacon, Legaspi",,,,,,,,7,Richter,13,123.9,10:45,,1954,7,2,1954,7,2,13,101,,,101,,,10.39947739,,,,,
1955,0002,,Natural,Geophysical,Earthquake,Ground movement,,,Philippines (the),PHL,South-Eastern Asia,Asia,"Mindanao, Lanao, Ozamis city",,,,,,,,6,Richter,7.674,124.081,05:52,,1955,4,1,1955,4,1,400,2000,,,2000,,5000,10.34538148,,,,,
1956,0002,,Natural,Geophysical,Earthquake,Ground movement,,,Iran (Islamic Republic of),IRN,Southern Asia,Asia,"Laristan, Bastak",,,,,,,,6,Richter,27.407,54.462,17:33,,1956,10,31,1956,10,31,350,,,,,,,10.50315398,,,,,
1956,0005,,Natural,Geophysical,Earthquake,Ground movement,,,Lebanon,LBN,Western Asia,Asia,"Bekaa, Litani",,,,,,,,6,Richter,35.5,35.5,21:32,,1956,3,16,1956,3,16,136,200,,,200,,,10.50315398,,,,,
1957,0009,,Natural,Geophysical,Earthquake,Ground movement,,,Mexico,MEX,Central America,Americas,"Acapulco (Guerrero), Mexico City",,Tsunami/Tidal wave,,,,,,8,Richter,16.5,-99.1,02:40,,1957,7,28,1957,7,28,160,100,,,100,,25000,10.85411263,,,,,
1957,0027,,Natural,Geophysical,Earthquake,Ground movement,,,Iran (Islamic Republic of),IRN,Southern Asia,Asia,Keyur Mesqal,,Flood,,,,,,,Richter,33.4,52.5,,,1957,4,23,1957,4,23,44,,,,,,,10.85411263,,,,,
1957,0008,,Natural,Geophysical,Earthquake,Ground movement,,,Iran (Islamic Republic of),IRN,Southern Asia,Asia,"Hazanderan, Abegarm; Caspian Shores",,,,,,,,7,Richter,36100,52700,04:12,,1957,7,2,1957,7,2,2500,,10000,,10000,,15000,10.85411263,,,,,
1957,0013,,Natural,Geophysical,Earthquake,Ground movement,,,Iran (Islamic Republic of),IRN,Southern Asia,Asia,Farsinaj (Western Iran),,,,,,,,7,Richter,34.3,47.8,05:15,,1957,12,13,1957,12,13,3000,5000,,,5000,,5000,10.85411263,,,,,
1957,0012,,Natural,Geophysical,Earthquake,Ground movement,,,Mongolia,MNG,Eastern Asia,Asia,Altay,,,,,,,,8,Richter,45.5,99.5,10:37,,1957,12,4,1957,12,4,1200,,,,,,,10.85411263,,,,,
1957,0011,,Natural,Geophysical,Volcanic activity,Ash fall,,Manam,Papua New Guinea,PNG,Melanesia,Oceania,Manam,,,,,,,,,,-4.08,145.037,,,1957,12,,1957,12,,,,3200,,3200,,,10.85411263,,,,,
1957,0015,,Natural,Geophysical,Earthquake,Ground movement,,,Tunisia,TUN,Northern Africa,Africa,"Sidi Abid, Sidi Touil, Cailloux",,,,,,,,6,Richter,36.2,8.9,05:41,,1957,2,20,1957,2,20,13,,,,,,,10.85411263,,,,,
1957,0016,,Natural,Geophysical,Earthquake,Ground movement,,,Turkey,TUR,Western Asia,Asia,Abant (Bolu province),,,,,,,,7,Richter,40.7,30.9,09:33,,1957,5,26,1957,5,26,53,119,,,119,,,10.85411263,,,,,
1958,0001,,Natural,Geophysical,Earthquake,Ground movement,,,Iran (Islamic Republic of),IRN,Southern Asia,Asia,"Teheran, Firuzabad (Western Iran)",,,,,,,,7,Richter,34.4,47.9,22:43,,1958,8,16,1958,8,16,191,984,,,984,,,11.1503436,,,,,
1958,0006,,Natural,Geophysical,Earthquake,Ground movement,,,Peru,PER,South America,Americas,Arequipa,,,,,,,,7,Richter,-16.5,-72,14:14,,1958,1,15,1958,1,15,28,,,,,,,11.1503436,,,,,
1959,0010,,Natural,Geophysical,Earthquake,Ground movement,,,United States of America (the),USA,Northern America,Americas,Hebgen Lake (Montana),,Tsunami/Tidal wave,,,,,,7,Richter,44.712,-111.215,23:37,,1959,8,17,1959,8,17,28,,,,,,11000,11.26304087,,,,,
1959,0044,,Natural,Geophysical,Earthquake,Ground movement,,,Mexico,MEX,Central America,Americas,Gulf of Campeche (Vera Cruz state),,,,,,,,6,Richter,18.22,-94.416,02:25,,1959,8,26,1959,8,26,25,200,,,200,,,11.26304087,,,,,
1960,0010,,Natural,Geophysical,Earthquake,Ground movement,,,Morocco,MAR,Northern Africa,Africa,Agadir,,Tsunami/Tidal wave,,,,,,6,Richter,30.45,-9.62,23:40,,1960,2,29,1960,2,29,12000,25000,,,25000,,120000,11.42725138,,,,,
1960,0007,,Natural,Geophysical,Earthquake,Ground movement,,,Peru,PER,South America,Americas,"Arequipa, Chuquibamban Caravelli, Cotahuasi",,Tsunami/Tidal wave,,,,,,8,Richter,-15.75,-72.75,10:40,,1960,1,13,1960,1,13,63,200,,,200,,,11.42725138,,,,,
1960,0002,,Natural,Geophysical,Earthquake,Ground movement,,,Iran (Islamic Republic of),IRN,Southern Asia,Asia,"Lar, Gerash",,,,,,,,6,Richter,28,54.5,15:44,,1960,4,24,1960,4,24,480,,,,,,20000,11.42725138,,,,,
1960,0011,,Natural,Geophysical,Volcanic activity,Ash fall,,Manam,Papua New Guinea,PNG,Melanesia,Oceania,Manam,,,,,,,,,,-4.08,145.037,,,1960,3,17,1960,3,17,,,2000,,2000,,,11.42725138,,,,,
1962,0006,,Natural,Geophysical,Earthquake,Ground movement,,,Iran (Islamic Republic of),IRN,Southern Asia,Asia,"Buyin-Zara, Qazvin",,,,,,,,7,Richter,35.656,49.843,22:50,,1962,9,1,1962,9,1,12000,3000,100000,,103000,,30000,11.68805955,,,,,
1962,0045,,Natural,Geophysical,Earthquake,Ground movement,,,Italy,ITA,Southern Europe,Europe,Irpinia,,,,,,,,6,Richter,41.4,15.5,19:19,,1962,8,21,1962,8,21,16,,,30000,30000,,,11.68805955,,,,,
1963,0001,,Natural,Geophysical,Earthquake,Ground movement,,,Libya,LBY,Northern Africa,Africa,El Marj (Barce),,,,,,,,5,Richter,32.6,21,19:14,,1963,2,21,1963,2,21,300,375,,5000,5375,,5000,11.83294687,,,,,
1964,0036,,Natural,Geophysical,Earthquake,Tsunami,,,Japan,JPN,Eastern Asia,Asia,"Niigata, Hodo Isl.",,Tsunami/Tidal wave,,,,,,7,Richter,38.67,139.195,13:01,,1964,6,16,1964,6,16,25,376,35000,,35376,5000,800000,11.98428136,,,,,
1964,0021,,Natural,Geophysical,Earthquake,Tsunami,,,United States of America (the),USA,Northern America,Americas,"Anchorage, Chitina, Glennallen, Homer, Hope, Kasilof, Kenai, Kodiak, Moose Pass, Portage, Seldovia, Seward, Sterling, Valdez, Wasilla, Whittier (Alaska)",,Tsunami/Tidal wave,,,,,,9,Richter,60.908,-147.339,18:36,,1964,3,27,1964,3,27,131,,,,,,311000,11.98428136,,,,,
1964,0032,,Natural,Geophysical,Earthquake,Ground movement,,,Mexico,MEX,Central America,Americas,"Guerrero, Michoacan",,,,Yes,,,,7,Richter,18.136,-100.605,01:22,,1964,7,6,1964,7,6,45,,4000,,4000,,3000,11.98428136,,,,,
1964,0059,,Natural,Geophysical,Earthquake,Ground movement,,,Turkey,TUR,Western Asia,Asia,"Manyas, Bursa, Balikesir provinces (West)",,,,Yes,,,,7,Richter,40.203,28.206,17:31,,1964,10,6,1964,10,6,23,100,13000,,13100,,5000,11.98428136,,,,,
1964,0014,,Natural,Geophysical,Earthquake,Ground movement,,,Taiwan (Province of China),TWN,Eastern Asia,Asia,Tainan,,,,Yes,,,,7,Richter,23.2,120.6,20:04,,1964,1,18,1964,1,18,107,2485,37000,23000,62485,,,11.98428136,,,,,
1964,0027,,Natural,Geophysical,Earthquake,Ground movement,,,"Tanzania, United Republic of",TZA,Eastern Africa,Africa,Northern,,,,Yes,,,,,Richter,2.31 S,32.56 E,,,1964,5,7,1964,5,7,4,,500,,500,,,11.98428136,,,,,
1965,0025,,Natural,Geophysical,Earthquake,Ground movement,,,El Salvador,SLV,Central America,Americas,San Marcos,,,,Yes,,,,6,Richter,13.5,-89.3,04:01,,1965,5,3,1965,5,3,125,1138,90582,48000,139720,,35000,12.17425308,,,,,
1965,0024,,Natural,Geophysical,Earthquake,Ground movement,,,United States of America (the),USA,Northern America,Americas,Seattle (Washington),,,,,,,,7,Richter,47.4,-122.3,07:28,,1965,4,29,1965,4,29,7,,,,,,28000,12.17425308,,,,,
1966,0082,,Natural,Geophysical,Earthquake,Ground movement,,,Peru,PER,South America,Americas,"Lima, Huacho, Kuaura, Chancay, Supe, San Nicolas",,Tsunami/Tidal wave,,Yes,,,,8,Richter,-10.665,-78.228,16:42,,1966,10,17,1966,10,17,120,1500,57600,49256,108356,,15000,12.5413205,,,,,
1966,0051,,Natural,Geophysical,Earthquake,Ground movement,,,Nepal,NPL,Southern Asia,Asia,Nepal-India border,,,,,,,,6,Richter,29.706,80.935,16:44,,1966,6,27,1966,6,27,80,100,20000,,20100,,1000,12.5413205,,,,,
1966,0042,,Natural,Geophysical,Earthquake,Ground movement,,,Soviet Union,SUN,Russian Federation,Europe,Tashkent (Uzbekistan),,,,,,,,,Richter,41.2,69.1,,,1966,4,26,1966,4,26,10,,100000,,100000,,300000,12.5413205,,,,,
1966,0058,,Natural,Geophysical,Earthquake,Ground movement,,,Turkey,TUR,Western Asia,Asia,Mus province,,,,,,,,,Richter,38.5,41.3,,,1966,7,3,1966,7,3,14,,,,,,,12.5413205,,,,,
1966,0062,,Natural,Geophysical,Earthquake,Ground movement,,,Turkey,TUR,Western Asia,Asia,Varto,,,,Yes,,,,7,Richter,39.235,41.572,15:22,,1966,8,19,1966,8,19,2394,1500,108000,,109500,,20000,12.5413205,,,,,
1966,0039,,Natural,Geophysical,Earthquake,Ground movement,,,Uganda,UGA,Eastern Africa,Africa,"W. Bwamba county, Kichwamba, Bondibogyo",,,,Yes,,,,1,Richter,0.622,29.863,04:42,,1966,3,20,1966,3,20,104,510,5000,,5510,,1500,12.5413205,,,,,
1967,0047,,Natural,Geophysical,Earthquake,Ground movement,,,Turkey,TUR,Western Asia,Asia,"(1) West Turkey - (2) East Turkey - (3) West Turkey; Mudurnu, Adapazari",,,,Yes,,,,7,Richter,40.751,30.8,19:57,,1967,7,22,1967,7,22,183,360,238713,87000,326073,,3000,12.88906472,,,,,
1968,0050,,Natural,Geophysical,Earthquake,Ground movement,,,Japan,JPN,Eastern Asia,Asia,Aomori Prefecture - Hokkaido,,Tsunami/Tidal wave,,,,,,7,Richter,40.5,140.43,,,1968,5,17,1968,5,17,47,281,2500,,2781,,131000,13.43965669,,,,,
1968,0073,,Natural,Geophysical,Earthquake,Ground movement,,,Mexico,MEX,Central America,Americas,Chiapas state,,Tsunami/Tidal wave,,,,,,6,Richter,15.5,-92.7,04:39,,1968,9,25,1968,9,25,15,500,,,500,,,13.43965669,,,,,
1968,0061,,Natural,Geophysical,Earthquake,Ground movement,,,Philippines (the),PHL,South-Eastern Asia,Asia,"Luzon Is., Manila",,Tsunami/Tidal wave,,Yes,,,,,Richter,16.316,122.067,04:19,,1968,8,2,1968,8,2,271,261,,,261,,5000,13.43965669,,,,,
1968,0071,,Natural,Geophysical,Earthquake,Ground movement,,,Turkey,TUR,Western Asia,Asia,"Bartin, Amasra, Cakraz (North Anatolia)",,Tsunami/Tidal wave,,,,,,7,Richter,41.86,32.463,11:19,,1968,9,3,1968,9,3,24,200,10000,10000,20200,,,13.43965669,,,,,
1968,0042,,Natural,Geophysical,Earthquake,Ground movement,,,Iran (Islamic Republic of),IRN,Southern Asia,Asia,"Azarbaijan, Maku, Shah Bandalu, Qurta Bolagh, Qondeqli",,,,,,,,5,Richter,39.2,44.3,20:31,,1968,4,29,1968,4,29,38,100,5000,,5100,,1000,13.43965669,,,,,
1968,0068,,Natural,Geophysical,Earthquake,Ground movement,,,Iran (Islamic Republic of),IRN,Southern Asia,Asia,Khorasan province,,,,Yes,,,,7,Richter,34.158,59.083,14:17,,1968,8,31,1968,8,31,10000,4050,75000,,79050,,35000,13.43965669,,,,,
1968,0023,,Natural,Geophysical,Earthquake,Ground movement,,,Italy,ITA,Southern Europe,Europe,Belice Valley (Western Sicily),,,,Yes,,,,6,Richter,37.702,13.033,03:01,,1968,1,15,1968,1,15,224,563,55000,,55563,,250000,13.43965669,,,,,
1968,0018,,Natural,Geophysical,Earthquake,Ground movement,,,Nicaragua,NIC,Central America,Americas,Managua,,,,Yes,,,,5,Richter,12.1,-86.2,04:03,,1968,1,4,1968,1,4,,,2000,,2000,,2000,13.43965669,,,,,
1968,0099,,Natural,Geophysical,Earthquake,Ground movement,,,New Zealand,NZL,Australia and New Zealand,Oceania,Inangahua,,,,,,,,7,Richter,-41.659,172.02,05:24,,1968,5,24,1968,5,24,3,14,300,,314,,2669,13.43965669,,,,,
1968,0052,,Natural,Geophysical,Earthquake,Ground movement,,,Peru,PER,South America,Americas,"Moyobamba, Sans Martin, Yantalo, Rioja, Lamas",,,,Yes,,,,7,Richter,-5.61,-77.086,03:13,,1968,6,19,1968,6,19,11,120,300,,420,,100,13.43965669,,,,,
1969,0046,,Natural,Geophysical,Earthquake,Ground movement,,,Iran (Islamic Republic of),IRN,Southern Asia,Asia,Khurasan province,,,,,,,,6,Richter,37.1,57.9,06:46,,1969,1,3,1969,1,3,50,300,48000,,48300,,,14.17378236,,,,,
1969,0098,,Natural,Geophysical,Earthquake,Ground movement,,,Peru,PER,South America,Americas,"Huancayo, Pariach",,,,Yes,,,,7,Richter,-11.841,-75.051,00:48,,1969,10,1,1969,10,1,150,216,3000,,3216,,5000,14.17378236,,,,,
1969,0059,,Natural,Geophysical,Earthquake,Ground movement,,,Turkey,TUR,Western Asia,Asia,"West Alasehir, Sarigol, Kirz",,,,,,,,7,Richter,38.515,28.546,04:48,,1969,3,28,1969,3,28,53,350,,,350,,,14.17378236,,,,,
1970,0032,,Natural,Geophysical,Earthquake,Ground movement,,,Peru,PER,South America,Americas,"Chimbote, Pisco, Chiclayo",,"Slide (land, mud, snow, rock)",Flood,Yes,,,,8,Richter,-9.183,-78.737,,,1970,5,31,1970,5,31,66794,143331,3072909,,3216240,,530000,15.00128211,,,,,
1970,0060,,Natural,Geophysical,Earthquake,Ground movement,,,Papua New Guinea,PNG,Melanesia,Oceania,Madang,,"Slide (land, mud, snow, rock)",,,,,,7,Richter,-4.999,145.396,03:53,,1970,11,1,1970,11,1,15,20,4000,,4020,,1750,15.00128211,,,,,
1970,0038,,Natural,Geophysical,Earthquake,Ground movement,,,Iran (Islamic Republic of),IRN,Southern Asia,Asia,"Karnaveh, Marev",,,,,,,,7,Richter,37.733,55.885,,,1970,7,30,1970,7,30,176,,10000,,10000,,8000,15.00128211,,,,,
1970,0068,,Natural,Geophysical,Earthquake,Ground movement,,,Peru,PER,South America,Americas,"Piura,Tumbes",,,,,,,,7,Richter,-4.026,-80.542,23:34,,1970,12,9,1970,12,9,29,252,15000,,15252,,2000,15.00128211,,,,,
1970,0004,,Natural,Geophysical,Earthquake,Ground movement,,,Philippines (the),PHL,South-Eastern Asia,Asia,Luzon,,,,,,,,,Richter,15.791,121.630,,,1970,4,7,1970,4,7,14,200,,,200,,,15.00128211,,,,,
1970,0019,,Natural,Geophysical,Earthquake,Ground movement,,,Turkey,TUR,Western Asia,Asia,Gediz,,,,Yes,,,,7,Richter,39.098,29.570,,,1970,3,28,1970,3,28,1086,2776,80672,,83448,,55600,15.00128211,,,,,
1971,0014,,Natural,Geophysical,Earthquake,Ground movement,,,Italy,ITA,Southern Europe,Europe,Toscana,,,,,,,,5,Richter,42.5,11.8,15:00,,1971,2,6,1971,2,6,22,100,4120,,4220,,41600,15.6452573,,,,,
1971,0030,,Natural,Geophysical,Earthquake,Ground movement,,,Turkey,TUR,Western Asia,Asia,Burdur,,,,,,,,6,Richter,37.6,29.8,09:25,,1971,5,12,1971,5,12,57,,,,,,,15.6452573,,,,,
1971,0034,,Natural,Geophysical,Earthquake,Ground movement,,,Turkey,TUR,Western Asia,Asia,"Bingol, Erzincan",,,,Yes,,,,7,Richter,38.934,40.653,19:43,,1971,5,22,1971,5,22,878,1200,60000,27465,88665,,5000,15.6452573,,,,,
1971,0016,,Natural,Geophysical,Earthquake,Ground movement,,,United States of America (the),USA,Northern America,Americas,San Fernando (Los Angeles),,,,,,,,7,Richter,34.416,-118.37,06:00,,1971,2,9,1971,2,9,65,2000,,,2000,35000,553000,15.6452573,,,,,
1972,0027,,Natural,Geophysical,Earthquake,Ground movement,,,Iran (Islamic Republic of),IRN,Southern Asia,Asia,"Qir, Karzin, Jahrom, Firuzabad (Southwest Iran)",,,,Yes,,,,7,Richter,28.415,52.765,05:36,,1972,4,10,1972,4,10,5057,1332,22126,,23458,,1000,16.15721204,,,,,
1972,0084,,Natural,Geophysical,Earthquake,Ground movement,,,Italy,ITA,Southern Europe,Europe,Ancona,,,,,,,,5,Richter,43.8,13.3,03:42,,1972,2,4,1972,2,4,1,,450,,450,,,16.15721204,,,,,
1972,0067,,Natural,Geophysical,Earthquake,Ground movement,,,Nicaragua,NIC,Central America,Americas,Managua,,,,Yes,,,,6,Richter,12.184,-86.223,00:29,,1972,12,23,1972,12,23,10000,20000,400000,300000,720000,100000,845000,16.15721204,,,,,
1972,0132,,Natural,Geophysical,Earthquake,Ground movement,,,Pakistan,PAK,Southern Asia,Asia,"Tangir, Gupis, Rawalpindi, Peshawar",,,,,,,,6,Richter,36,73.4,21:48,,1972,9,3,1972,9,3,100,,5000,,5000,,,16.15721204,,,,,
1972,0024,,Natural,Geophysical,Earthquake,Ground movement,,,Peru,PER,South America,Americas,"Juanjui, Tarapoto",,,,Yes,,,,6,Richter,-6.855,-76.726,02:33,,1972,3,20,1972,3,20,12,,1500000,75000,1575000,,20000,16.15721204,,,,,
1973,0014,,Natural,Geophysical,Earthquake,Ground movement,,,Mexico,MEX,Central America,Americas,"Michoacan, Colima",,,,,,,,8,Richter,18.481,-102.996,15:01,,1973,1,30,1973,1,30,56,390,,,390,,,17.15536031,,,,,
1973,0035,,Natural,Geophysical,Earthquake,Ground movement,,,Mexico,MEX,Central America,Americas,"Puebla, Veracrur, Mexico city",,,,,,,,7,Richter,18.267,-96.598,03:50,,1973,8,28,1973,8,28,500,,,,,,,17.15536031,,,,,
1973,0017,,Natural,Geophysical,Earthquake,Ground movement,,,Philippines (the),PHL,South-Eastern Asia,Asia,"Luzon, Tablas Is., Quezon city, Calaug, Lopez, Guiayangan",,,,,,,,7,Richter,13.372,122.787,16:30,,1973,3,17,1973,3,17,14,64,,,64,,450,17.15536031,,,,,
1974,0026,,Natural,Geophysical,Earthquake,Ground movement,,,Japan,JPN,Eastern Asia,Asia,"Izu-Hanto, Nakagi",,Tsunami/Tidal wave,,,,,,7,Richter,34.522,138.74,08:33,,1974,5,9,1974,5,9,30,73,,,73,,,19.05185393,,,,,
1974,0063,,Natural,Geophysical,Earthquake,Ground movement,,,Pakistan,PAK,Southern Asia,Asia,"North Indus R. Valley, Balakot, Patan",,Tsunami/Tidal wave,,Yes,,,,6,Richter,35.1,72.9,17:28,,1974,12,28,1974,12,28,4700,15000,30000,5200,50200,,3255,19.05185393,,,,,
1974,0050,,Natural,Geophysical,Earthquake,Ground movement,,,Peru,PER,South America,Americas,"Lima area, Calleo",,Tsunami/Tidal wave,,Yes,,,,8,Richter,-12.265,-77.795,01:21,,1974,10,4,1974,10,4,78,2414,41260,,43674,,10000,19.05185393,,,,,
1975,0043,,Natural,Geophysical,Earthquake,Tsunami,,,Solomon Islands,SLB,Melanesia,Oceania,Torkina,,,,,,,,8,Richter,-7.104,155.152,06:54,,1975,7,21,1975,7,21,200,,,,,,,20.79379863,,,,,
1975,0053,,Natural,Geophysical,Earthquake,Ground movement,,,Turkey,TUR,Western Asia,Asia,"Hazro, Hani, Kulp,Lice",,,,Yes,,,,7,Richter,38.474,40.723,12:20,,1975,9,6,1975,9,6,2385,3372,50000,,53372,,17000,20.79379863,,,,,
1976,0054,,Natural,Geophysical,Earthquake,Ground movement,,,Philippines (the),PHL,South-Eastern Asia,Asia,"Gulf of Moro, Sulu (Mindanao)",,Tsunami/Tidal wave,,Yes,,,,8,Richter,6.262,124.023,00:11,,1976,8,17,1976,8,17,6000,6348,175000,,181348,,134000,21.98835663,,,,,
1976,0072,,Natural,Geophysical,Earthquake,Ground movement,,,Iran (Islamic Republic of),IRN,Southern Asia,Asia,South Khorasan province,,,,,,,,6,Richter,33.8,59.15,07:30,,1976,11,6,1976,11,6,16,,,,,,,21.98835663,,,,,
1976,0020,,Natural,Geophysical,Earthquake,Ground movement,,,Iceland,ISL,Northern Europe,Europe,Kopasker,,,,,,,,6,Richter,66.157,-16.582,13:29,,1976,1,13,1976,1,13,1,6,,,6,,,21.98835663,,,,,
1976,0037,,Natural,Geophysical,Earthquake,Ground movement,,,Italy,ITA,Southern Europe,Europe,Friuli region,,,,,,,,7,Richter,46.356,13.275,21:00,,1976,5,6,1976,5,6,922,1750,111472,105000,218222,,3600000,21.98835663,,,,,
1976,0021,,Natural,Geophysical,Earthquake,Ground movement,,,New Zealand,NZL,Australia and New Zealand,Oceania,"Kermandec Is., Raoul",,,,,,,,8,Richter,-28.427,-177.657,04:47,,1976,1,15,1976,1,15,,,,,,,,21.98835663,,,,,
1976,0039,,Natural,Geophysical,Earthquake,Ground movement,,,Soviet Union,SUN,Russian Federation,Europe,"Gazli, Bukhara (Uzbekistan)",,,,,,,,7,Richter,40.381,63.472,07:58,,1976,5,17,1976,5,17,,,,,,,85000,21.98835663,,,,,
1976,0029,,Natural,Geophysical,Earthquake,Ground movement,,,Turkey,TUR,Western Asia,Asia,,,,,,,,,5,Richter,41.13,43.01,14:55,,1976,3,25,1976,3,25,2,6,,,6,,,21.98835663,,,,,
1976,0056,,Natural,Geophysical,Earthquake,Ground movement,,,Turkey,TUR,Western Asia,Asia,Denizli,,,,,,,,5,Richter,37.7,28.89,04:12,,1976,8,19,1976,8,19,4,50,,9000,9050,,,21.98835663,,,,,
1976,0075,,Natural,Geophysical,Earthquake,Ground movement,,,Turkey,TUR,Western Asia,Asia,Muradiye,,,,Yes,,,,7,Richter,39.121,44.029,15:22,,1976,11,24,1976,11,24,3840,15000,150000,51000,216000,,25000,21.98835663,,,,,
1977,0059,,Natural,Geophysical,Earthquake,Ground movement,,,Solomon Islands,SLB,Melanesia,Oceania,"Guadalcanal, Honiara",,Tsunami/Tidal wave,"Slide (land, mud, snow, rock)",,,,,7,Richter,-9.828,160.323,10:10,,1977,4,21,1977,4,21,34,1,1000,,1001,,,23.41797075,,,,,
1977,0051,,Natural,Geophysical,Earthquake,Ground movement,,,Iran (Islamic Republic of),IRN,Southern Asia,Asia,Bandar Abbas area,,,,,,,,7,Richter,27.609,56.393,00:48,,1977,3,22,1977,3,22,167,556,20126,,20682,,,23.41797075,,,,,
1977,0057,,Natural,Geophysical,Earthquake,Ground movement,,,Iran (Islamic Republic of),IRN,Southern Asia,Asia,"Shahr Kord; Naghan, Ardal, Jaghdan, Dastgerd, Kordan, Sarmur",,,,,,,,6,Richter,31.98,50.68,17:06,,1977,4,7,1977,4,7,352,200,400000,,400200,,,23.41797075,,,,,
1977,0071,,Natural,Geophysical,Earthquake,Ground movement,,,Iran (Islamic Republic of),IRN,Southern Asia,Asia,"Makhmur, Ilchi",,,,,,,,5,Richter,38.934,44.38,04:45,,1977,5,26,1977,5,26,3,9,,,9,,,23.41797075,,,,,
1977,0140,,Natural,Geophysical,Earthquake,Ground movement,,,Iran (Islamic Republic of),IRN,Southern Asia,Asia,Hormozgan,,,,,No,No,,5,Richter,27.69 N,56.57 E,,,1977,12,10,1977,12,10,3,15,,,15,,,23.41797075,,,,,
1977,0142,,Natural,Geophysical,Earthquake,Ground movement,,,Iran (Islamic Republic of),IRN,Southern Asia,Asia,"Sarasiyab, Gish, Bab-Tangal villages (Kerman province)",,,,,,,,6,Richter,30.95,56.47,03:04,,1977,12,20,1977,12,20,589,500,,,500,,,23.41797075,,,,,
1977,0050,,Natural,Geophysical,Earthquake,Ground movement,,,Philippines (the),PHL,South-Eastern Asia,Asia,Cagayan (N.E. Luzon),,,,,,,,7,Richter,16.773,122.327,05:43,,1977,3,19,1977,3,19,1,30,60000,,60030,,100,23.41797075,,,,,
1977,0048,,Natural,Geophysical,Earthquake,Ground movement,,,Romania,ROU,Eastern Europe,Europe,Bucharest,,,,Yes,,,,8,Richter,45.772,26.761,21:21,,1977,3,4,1977,3,4,1641,11300,200000,175000,386300,,2000000,23.41797075,,,,,
1977,0078,,Natural,Geophysical,Earthquake,Ground movement,,,Tonga,TON,Polynesia,Oceania,Tongatapu,,,,Yes,,,,7,Richter,-22.878,-175.9,01:08,,1977,6,23,1977,6,23,1,5,5000,500,5505,,1200,23.41797075,,,,,
1977,0052,,Natural,Geophysical,Earthquake,Ground movement,,,Turkey,TUR,Western Asia,Asia,"Lice-Palu, Elazig Province",,,,,,,,5,Richter,38.56,40.02,05:39,,1977,3,25,1977,3,25,30,,,,,,,23.41797075,,,,,
1978,0027,,Natural,Geophysical,Earthquake,Ground movement,,,Japan,JPN,Eastern Asia,Asia,"Oshima, Yokohama, Tokkaido",,Tsunami/Tidal wave,,,,,,7,Richter,34.809,139.259,12:24,,1978,1,14,1978,1,14,25,129,1632,255,2016,,,25.2049907,,,,,
1978,0057,,Natural,Geophysical,Earthquake,Ground movement,,,Italy,ITA,Southern Europe,Europe,Sicily,,,,,,,,6,Richter,38.391,15.066,00:33,,1978,4,16,1978,4,16,5,,900,,900,,,25.2049907,,,,,
1978,0080,,Natural,Geophysical,Earthquake,Ground movement,,,Japan,JPN,Eastern Asia,Asia,Sendai (Near Esat coast of Honshu),,,,,,,,8,Richter,38.19,142.028,17:14,,1978,6,12,1978,6,12,28,500,2000,,2500,2000,865000,25.2049907,,,,,
1941,0029,,Natural,Geophysical,Earthquake,Ground movement,,,Yemen Arab Rep,YMN,Western Asia,Asia,"Sadah, Razih",,,,,,,,6,Richter,16.4,43.5,11:32,,1941,1,11,1941,1,11,1200,200,5000,3500,8700,,,5.695872376,,,,,
1950,0029,,Natural,Geophysical,Earthquake,Ground movement,,,Venezuela (Bolivarian Republic of),VEN,South America,Americas,El Tocuyo,,Tsunami/Tidal wave,,,,,,7,Richter,10.5,-68,18:18,,1950,8,3,1950,8,3,100,,,,,,,9.317003909,,,,,
1963,0016,,Natural,Geophysical,Earthquake,Ground movement,,,Yugoslavia,YUG,Southern Europe,Europe,Skopje (Macedonia (FYR)),,,,,,,,6,Richter,42.1,21.3,05:17,,1963,7,26,1963,7,26,1070,3300,,,3300,,1000000,11.83294687,,,,,
1967,0050,,Natural,Geophysical,Earthquake,Ground movement,,,Venezuela (Bolivarian Republic of),VEN,South America,Americas,"Caracas, Macuto coast",,Tsunami/Tidal wave,,Yes,,,,7,Richter,10.559,-67.33,20:04,,1967,7,28,1967,7,28,240,1536,80000,,81536,,140000,12.88906472,,,,,
1967,0074,,Natural,Geophysical,Earthquake,Ground movement,,,Yugoslavia,YUG,Southern Europe,Europe,Debar (Macedonia (FYR)),,,,Yes,,,,,Richter,42,21.28,,,1967,11,30,1967,11,30,7,70,16400,5400,21870,,20000,12.88906472,,,,,
1968,0082,,Natural,Geophysical,Earthquake,Ground movement,,,Yugoslavia,YUG,Southern Europe,Europe,Montenegro,,,,Yes,,,,5,Richter,42.1,19.3,05:49,,1968,11,3,1968,11,3,1,30,15000,,15030,,38600,13.43965669,,,,,
1969,0107,,Natural,Geophysical,Earthquake,Ground movement,,,Yugoslavia,YUG,Southern Europe,Europe,Bosnia and Herzegovina,,,,Yes,,,,6,Richter,44.9,17.3,16:36,,1969,10,26,1969,10,26,15,1116,200000,85000,286116,,50000,14.17378236,,,,,
1969,0097,,Natural,Geophysical,Earthquake,Ground movement,,,South Africa,ZAF,Southern Africa,Africa,Cape province,,,,,,,,6,Richter,-33.268,19.386,22:03,,1969,9,29,1969,9,29,9,,1000,,1000,,24000,14.17378236,,,,,
1977,0037,,Natural,Geophysical,Volcanic activity,Ash fall,,Mt. Nyiragongo,Congo (the Democratic Republic of the),COD,Middle Africa,Africa,Near Goma,,,,Yes,,,,,,-1.52,29.25,,,1977,1,10,1977,1,10,147,,,60000,60000,,,23.41797075,,,,,
1978,0113,,Natural,Geophysical,Earthquake,Ground movement,,,Germany Fed Rep,DFR,Western Europe,Europe,Swabian Alb,,,,,,,,6,Richter,48.29,9.01,06:08,,1978,9,3,1978,9,3,,35,,200,235,,150000,25.2049907,,,,,
1979,0094,,Natural,Geophysical,Earthquake,Ground movement,,,Guatemala,GTM,Central America,Americas,"Santa Rosa, Jutiapia provinces ",,"Slide (land, mud, snow, rock)",,,,,,5,Richter,14.321,-90.082,01:49,,1979,10,9,1979,10,9,,40,2000,,2040,,,28.04168132,,,,,
1979,0113,,Natural,Geophysical,Earthquake,Ground movement,,,Colombia,COL,South America,Americas,"Pasto, Buenaventura, Narino, Cauca provinces, Tumaco Isl.; Gorgona Isl.",,Tsunami/Tidal wave,,,,,,8,Richter,1.598,-79.358,02:59,,1979,12,12,1979,12,12,579,1042,10000,,11042,,8000,28.04168132,,,,,
1979,0039,,Natural,Geophysical,Earthquake,Ground movement,,,Albania,ALB,Southern Europe,Europe,Northern,,,,,,,,7,Richter,42.096,19.209,07:19,,1979,4,15,1979,4,15,35,350,,,350,,,28.04168132,,,,,
1979,0063,,Natural,Geophysical,Earthquake,Ground movement,,,China,CHN,Eastern Asia,Asia,Lyang area (Jiangsu province),,,,,,,,5,Richter,31.452,119.241,18:57,,1979,7,9,1979,7,9,42,2987,,569545,572532,,,28.04168132,,,,,
1979,0082,,Natural,Geophysical,Earthquake,Ground movement,,,China,CHN,Eastern Asia,Asia,Wu-Yuan area (Inner Mongolia),,,,,,,,6,Richter,41.145,108.129,00:59,,1979,8,25,1979,8,25,,104,2000,,2104,,,28.04168132,,,,,
1979,0106,,Natural,Geophysical,Earthquake,Ground movement,,,Colombia,COL,South America,Americas,Manizales-Armenia area,,,,,,,,7,Richter,4.805,-76.217,18:40,,1979,11,23,1979,11,23,60,600,,,600,,20000,28.04168132,,,,,
1979,0259,,Natural,Geophysical,Earthquake,Tsunami,,,France,FRA,Western Europe,Europe,Cote d'Azur,Landslide,,,,No,No,,,Richter,43.70 N,7.25 E,,,1979,10,16,1979,10,16,11,2,,,2,,,28.04168132,,,,,
1980,0096,,Natural,Geophysical,Earthquake,Ground movement,,,Algeria,DZA,Northern Africa,Africa,El Asnam,,Tsunami/Tidal wave,,Yes,,,,7,Richter,36.195,1.354,13:25,,1980,10,10,1980,10,10,2633,8369,478948,443000,930317,,5200000,31.84110657,,,,,
1980,0001,,Natural,Geophysical,Earthquake,Ground movement,,,Azores Islands,AZO,Southern Europe,Europe,"Terceira, San Miguel, Santa Maria Pico, Sao Jorge Islands",,,,Yes,,,,7,Richter,38.815,-27.78,15:42,,1980,1,1,1980,1,1,69,600,21300,,21900,,5000,31.84110657,,,,,
1980,0081,,Natural,Geophysical,Earthquake,Ground movement,,,Ecuador,ECU,South America,Americas,Guayaquil,,,,,,,,6,Richter,-1.948,-80.017,10:07,,1980,8,18,1980,8,18,8,40,,,40,,,31.84110657,,,,,
1980,0239,,Natural,Geophysical,Earthquake,Ground movement,,,Greece,GRC,Southern Europe,Europe,Volos (Magnisia province),,,,,,,,6,Richter,39.203,22.729,08:32,,1980,7,12,1980,7,12,1,17,,,17,,5000,31.84110657,,,,,
1981,0091,,Natural,Geophysical,Earthquake,Ground movement,,,Colombia,COL,South America,Americas,Colombia/Venezuela border,,"Slide (land, mud, snow, rock)",,,,,,5,Richter,8.117,-72.527,23:31,,1981,10,18,1981,10,18,10,,,,,,5000,35.13179151,,,,,
1981,0122,,Natural,Geophysical,Earthquake,Ground movement,,,Greece,GRC,Southern Europe,Europe,Greece-Albania border region,,"Slide (land, mud, snow, rock)",,,,,,6,Richter,39.481,20.699,17:16,,1981,3,10,1981,3,10,2,,450,,450,,,35.13179151,,,,,
1981,0026,,Natural,Geophysical,Earthquake,Ground movement,,,China,CHN,Eastern Asia,Asia,Sichuan province,,,,,,,,7,Richter,30.927,101.098,05:13,,1981,1,24,1981,1,24,150,850,25000,,25850,,,35.13179151,,,,,
1981,0033,,Natural,Geophysical,Earthquake,Ground movement,,,Greece,GRC,Southern Europe,Europe,Athens-Corinth area,,,,Yes,,,,7,Richter,38.222,22.934,22:53,,1981,2,24,1981,2,24,22,400,80000,,80400,,900000,35.13179151,,,,,
1982,0127,,Natural,Geophysical,Earthquake,Ground movement,,,Afghanistan,AFG,Southern Asia,Asia,Baghlan province (Hindu Kush region),,,,,,,,7,Richter,36.148,69.011,05:10,,1982,12,16,1982,12,16,500,3000,35000,,38000,,1000,37.28586971,,,,,
1982,0161,,Natural,Geophysical,Earthquake,Ground movement,,,Albania,ALB,Southern Europe,Europe," Lushnje, Bier, Berat",,,,,,,,6,Richter,40.883,19.59,00:41,,1982,11,16,1982,11,16,1,5,,5000,5005,,5000,37.28586971,,,,,
1982,0068,,Natural,Geophysical,Earthquake,Ground movement,,,China,CHN,Eastern Asia,Asia,Garze (Sichuan province),,,,,,,,6,Richter,31.907,99.931,07:24,,1982,6,16,1982,6,16,10,5,,,5,,,37.28586971,,,,,
1983,0092,,Natural,Geophysical,Earthquake,Ground movement,,,Costa Rica,CRI,Central America,Americas,San Jose province,,"Slide (land, mud, snow, rock)",,Yes,,,,7,Richter,9.652,-83.688,11:14,,1983,7,3,1983,7,3,2,60,5000,,5060,,5000,38.4836513,,,,,
1983,0166,,Natural,Geophysical,Earthquake,Ground movement,,,Afghanistan,AFG,Southern Asia,Asia,"Hindu Kush region, North-East provinces",,,,,Yes,No,,7,Richter,34.01 N,71.40 E,,,1983,12,16,1983,12,16,12,483,27440,6580,34503,,3000,38.4836513,,,,,
1983,0146,,Natural,Geophysical,Earthquake,Ground movement,,,Belgium,BEL,Western Europe,Europe,Seraing (Liège),,,,,No,No,,5,Richter,50.37 N,5.31 E,,,1983,11,8,1983,11,8,2,30,1000,,1030,,50000,38.4836513,,,,,
1983,0127,,Natural,Geophysical,Earthquake,Ground movement,,,Chile,CHL,South America,Americas,"Atacama, Copiapo-Chanaral area",,,,,,,,7,Richter,-26.535,-70.563,14:52,,1983,10,4,1983,10,4,4,24,1500,,1524,,1000,38.4836513,,,,,
1983,0144,,Natural,Geophysical,Earthquake,Ground movement,,,China,CHN,Eastern Asia,Asia,Heze area (Shandong province),,,,,,,,5,Richter,35.206,115.213,05:09,,1983,11,7,1983,11,7,34,2200,,16500,18700,,,38.4836513,,,,,
1983,0059,,Natural,Geophysical,Earthquake,Ground movement,,,Colombia,COL,South America,Americas,Popayan city (Cauca department),,,,,,,,5,Richter,2.461,-76.686,08:12,,1983,3,31,1983,3,31,250,1200,35000,,36200,,410900,38.4836513,,,,,
1983,0065,,Natural,Geophysical,Earthquake,Ground movement,,,Costa Rica,CRI,Central America,Americas,S.E. San José,,,,Yes,,,,7,Richter,8.717,-83.123,20:50,,1983,4,2,1983,4,2,10,,475,,475,,1000,38.4836513,,,,,
1983,0161,,Natural,Geophysical,Earthquake,Ground movement,,,Guinea,GIN,Western Africa,Africa,Gaoual-Koumbia area,,,,Yes,,,,6,Richter,11.866,-13.529,04:11,,1983,12,22,1983,12,22,275,1436,20000,,21436,,,38.4836513,,,,,
1983,0171,,Natural,Geophysical,Earthquake,Ground movement,,,Greece,GRC,Southern Europe,Europe,Vonitsa area,,,,,,,,6,Richter,38.294,20.262,01:51,,1983,3,24,1983,3,24,,7,480,,487,,,38.4836513,,,,,
1984,0309,,Natural,Geophysical,Earthquake,Ground movement,,,Afghanistan,AFG,Southern Asia,Asia,Jalalabad Area,,,,,No,No,,6,Richter,34.26 N,70.28 E,,,1984,2,2,1984,2,2,1,35,,,35,,5000,40.13865994,,,,,
1985,0024,,Natural,Geophysical,Earthquake,Ground movement,,,Argentina,ARG,South America,Americas,Mendoza province,,,,Yes,,,,7,Richter,-33.053,-68.467,00:06,,1985,1,26,1985,1,26,6,238,45000,,45238,,,41.56182689,,,,,
1985,0041,,Natural,Geophysical,Earthquake,Ground movement,,,Chile,CHL,South America,Americas,"Valparaiso, Santiago, Talca, Copiapo, La Serena, Rancegua, Cauquenes, Concepcion",,,,Yes,,,,8,Richter,-33.135,-71.871,19:47,,1985,3,3,1985,3,3,180,2483,979792,500000,1482275,90000,1500000,41.56182689,,,,,
1985,0055,,Natural,Geophysical,Earthquake,Ground movement,,,China,CHN,Eastern Asia,Asia,Yunnan province,,,,,,,,6,Richter,25.926,102.871,13:52,,1985,4,18,1985,4,18,22,300,,,300,,,41.56182689,,,,,
1985,0101,,Natural,Geophysical,Earthquake,Ground movement,,,China,CHN,Eastern Asia,Asia,Wuqia-Shufu area,,,,,,,,7,Richter,39.431,75.224,20:41,,1985,8,23,1985,8,23,67,100,,16000,16100,,,41.56182689,,,,,
1985,0386,,Natural,Geophysical,Earthquake,Ground movement,,,Algeria,DZA,Northern Africa,Africa,Constantine-Skikda area,,,,,,,,6,Richter,36.46,6.791,20:34,,1985,10,27,1985,10,27,30,,,,,,1000,41.56182689,,,,,
1985,0120,,Natural,Geophysical,Earthquake,Ground movement,,,Guatemala,GTM,Central America,Americas,"Tierra Blanca, Catoxac canton, San Lucas canton, San Antonio Chiquito (San Miguel Uspantan)",,,,Yes,,,,5,Richter,15.299,-90.863,03:39,,1985,10,11,1985,10,11,,,1500,3500,5000,,,41.56182689,,,,,
1986,0140,,Natural,Geophysical,Earthquake,Ground movement,,,Bulgaria,BGR,Eastern Europe,Europe,Strazhitsa (Tyrnovo region),,,,,No,No,,5,Richter,43.12 N,25.57 E,,,1986,12,7,1986,12,7,3,60,,3000,3060,,,42.35069857,,,,,
1986,0141,,Natural,Geophysical,Earthquake,Ground movement,,,Brazil,BRA,South America,Americas,"Joao Camara, Pobo Branco",,,,,No,No,,5,Richter,3.58 S,62.42 W,,,1986,11,30,1986,11,30,1,,15000,8000,23000,,5000,42.35069857,,,,,
1986,0173,,Natural,Geophysical,Earthquake,Ground movement,,,China,CHN,Eastern Asia,Asia,"Ombu area, Tibet",,,,,No,No,,6,Richter,31.240 N,86.847 E,,,1986,6,20,1986,6,20,,,,290,290,,,42.35069857,,,,,
1986,0113,,Natural,Geophysical,Earthquake,Ground movement,,,Greece,GRC,Southern Europe,Europe,Kalamata (Southwestern Peloppinos),,,,Yes,No,No,,6,Richter,37.02 N,22.07 E,,,1986,9,13,1986,9,13,20,300,45000,,45300,,745000,42.35069857,,,,,
1986,0170,,Natural,Geophysical,Earthquake,Ground movement,,,Guatemala,GTM,Central America,Americas,Ixchiguan (San Marcos province),,,,,No,No,,5,Richter,15.075 N,92.072 W,,,1986,2,3,1986,2,3,,,2500,,2500,,,42.35069857,,,,,
1987,0144,,Natural,Geophysical,Earthquake,Ground movement,,,Chile,CHL,South America,Americas,"Arica, Iquique several small Andean towns",,"Slide (land, mud, snow, rock)",,,,,,7,Richter,-19.022,-69.991,11:48,,1987,8,8,1987,8,8,5,112,,5000,5112,,1000,43.90266239,,,,,
1987,0070,,Natural,Geophysical,Earthquake,Ground movement,,,Ecuador,ECU,South America,Americas,"Carchi, Imbabura, Pastaza, Napo provinces",,"Slide (land, mud, snow, rock)",,Yes,Yes,Yes,,7,Richter,0.151,-77.785,23:10,,1987,3,5,1987,3,5,5000,,,150000,150000,,1500000,43.90266239,,,,,
1987,0162,,Natural,Geophysical,Earthquake,Ground movement,,,Ecuador,ECU,South America,Americas,Ambato (Tungurahua province),,"Slide (land, mud, snow, rock)",,,,,,6,Richter,-0.978,-78.05,8:43,,1987,9,22,1987,9,22,2,6,,,6,,,43.90266239,,,,,
1987,0102,,Natural,Geophysical,Earthquake,Ground movement,,,China,CHN,Eastern Asia,Asia,Wushi area (XINGJIANG WEIWUER ZIZHIQU PROVINCE),,,,,,,,6,Richter,41.529,79.318,16:09,,1987,1,24,1987,1,24,,,2085,,2085,,,43.90266239,,,,,
1987,0149,,Natural,Geophysical,Earthquake,Ground movement,,,China,CHN,Eastern Asia,Asia,Ganzhou-Xunwu area,,,,,,,,5,Richter,24.924,115.608,17:07,,1987,8,2,1987,8,2,,84,185000,,185084,,,43.90266239,,,,,
1987,0306,,Natural,Geophysical,Earthquake,Ground movement,,,Algeria,DZA,Northern Africa,Africa,"Wilaya de Chle, Wilaya de Tissemsilt, Daira de Bordj Bou Naama, Larbaa",,,,,,,,4,Richter,35.964,1.374,12:11,,1987,1,26,1987,1,26,1,7,3145,,3152,,1000,43.90266239,,,,,
1988,0467,,Natural,Geophysical,Earthquake,Ground movement,,,Greece,GRC,Southern Europe,Europe,"Near Killini, Vartholomion ",,"Slide (land, mud, snow, rock)",,,,,,6,Richter,37.938,20.932,14:34,,1988,10,16,1988,10,16,,25,,,25,,,45.69289676,,,,,
1988,0043,,Natural,Geophysical,Earthquake,Ground movement,,,Guatemala,GTM,Central America,Americas,South,,"Slide (land, mud, snow, rock)",,,,,,7,Richter,13.881,-90.45,08:47,,1988,11,3,1988,11,3,5,,500,,500,,,45.69289676,,,,,
1988,0079,,Natural,Geophysical,Earthquake,Ground movement,,,Bangladesh,BGD,Southern Asia,Asia,Syhlet,,,,,,,,6,Richter,24.688,991.57,20:50,,1988,2,6,1988,2,6,2,100,,,100,,,45.69289676,,,,,
1988,0035,,Natural,Geophysical,Earthquake,Ground movement,,,China,CHN,Eastern Asia,Asia,Lingwu (Ningxia province),,,,,,,,6,Richter,38.111,106.336,05:32,,1988,1,4,1988,1,4,,60,50000,,50060,,,45.69289676,,,,,
1988,0502,,Natural,Geophysical,Earthquake,Ground movement,,,China,CHN,Eastern Asia,Asia,"Lancang, Menglian counties (Yunnan province)",,,,Yes,,,,8,Richter,22.789,99.611,21:03,,1988,11,6,1988,11,6,939,3364,1000000,267000,1270364,,269000,45.69289676,,,,,
1988,0042,,Natural,Geophysical,Earthquake,Ground movement,,,Algeria,DZA,Northern Africa,Africa,"Blida, Mede-Algiers areas",,,,,,,,5,Richter,36.443,2.759,11:12,,1988,10,31,1988,10,31,,57,,200,257,,,45.69289676,,,,,
1988,0463,,Natural,Geophysical,Earthquake,Ground movement,,,Guatemala,GTM,Central America,Americas,"PALIN, SAN VICENTE PACAYA, Chamaltenango area",,,,,,,,6,Richter,13.881,-90.45,08:47,,1988,10,15,1988,10,15,,,,1550,1550,,,45.69289676,,,,,
1978,0115,,Natural,Geophysical,Earthquake,Ground movement,,,Iran (Islamic Republic of),IRN,Southern Asia,Asia,Tabas (Khorasan province),,,,,,,,7,Richter,33.386,57.434,19:04,,1978,9,16,1978,9,16,25000,,40000,,40000,,50000,25.2049907,,,,,
1978,0141,,Natural,Geophysical,Earthquake,Ground movement,,,Iran (Islamic Republic of),IRN,Southern Asia,Asia,"Izeh, Masjed-e-Soleyman ",,,,,,,,6,Richter,32.14,49.65,10:35,,1978,12,14,1978,12,14,45,52,,,52,,,25.2049907,,,,,
1978,0135,,Natural,Geophysical,Earthquake,Ground movement,,,Mexico,MEX,Central America,Americas,"Mexico city, Oaxaca",,,,,,,,8,Richter,16.01,-96.591,13:52,,1978,11,29,1978,11,29,9,100,3750,,3850,,,25.2049907,,,,,
1979,0086,,Natural,Geophysical,Earthquake,Ground movement,,,Indonesia,IDN,South-Eastern Asia,Asia,"Yapen, Jobi (Irian Jaja)",,Tsunami/Tidal wave,,,,,,8,Richter,-1.679,136.04,12:17,,1979,9,12,1979,9,12,2,5,5000,,5005,,,28.04168132,,,,,
1979,0066,,Natural,Geophysical,Earthquake,Tsunami,,,Indonesia,IDN,South-Eastern Asia,Asia,Lomblen Island,Earthquake and landslide,Tsunami/Tidal wave,,,,,,,Richter,8.8,123.5,,,1979,7,18,1979,7,18,539,23,,,23,,,28.04168132,,,,,
1979,0054,,Natural,Geophysical,Earthquake,Ground movement,,,Indonesia,IDN,South-Eastern Asia,Asia,Lombok Island (Sumabxa Isl. region),,,,,No,No,,6,Richter,8.21 S,115.95 E,,,1979,5,30,1979,5,30,34,48,18000,18000,36048,,4150,28.04168132,,,,,
1979,0102,,Natural,Geophysical,Earthquake,Ground movement,,,Indonesia,IDN,South-Eastern Asia,Asia,West Java,,,,,,,,6,Richter,-7.656,108.252,22:53,,1979,11,2,1979,11,2,26,200,43000,,43200,,16000,28.04168132,,,,,
1979,0114,,Natural,Geophysical,Earthquake,Ground movement,,,Indonesia,IDN,South-Eastern Asia,Asia,Bengkulu area (South Sumatra),,,,,,,,7,Richter,-3.299,102.712,07:02,,1979,12,15,1979,12,15,5,,1500,,1500,,,28.04168132,,,,,
1979,0115,,Natural,Geophysical,Earthquake,Ground movement,,,Indonesia,IDN,South-Eastern Asia,Asia,"Bali, Lombok",,,,,,,,6,Richter,-8.39,115.889,03:58,,1979,12,18,1979,12,18,32,619,,,619,,,28.04168132,,,,,
1979,0018,,Natural,Geophysical,Earthquake,Ground movement,,,Iran (Islamic Republic of),IRN,Southern Asia,Asia,"Meshed, Bonzanabad (Khorasan province)",,,,,,,,7,Richter,33.897,59.472,19:39,,1979,1,16,1979,1,16,199,200,5000,,5200,,,28.04168132,,,,,
1979,0103,,Natural,Geophysical,Earthquake,Ground movement,,,Iran (Islamic Republic of),IRN,Southern Asia,Asia,Khorasan province,,,,,,,,7,Richter,33.918,59.741,05:51,,1979,11,14,1979,11,14,350,55,15000,,15055,,,28.04168132,,,,,
1979,0107,,Natural,Geophysical,Earthquake,Ground movement,,,Iran (Islamic Republic of),IRN,Southern Asia,Asia,Khorasan province,,,,,,,,7,Richter,33.962,59.726,20:40,,1979,11,27,1979,11,27,16,23,,,23,,,28.04168132,,,,,
1979,0216,,Natural,Geophysical,Earthquake,Ground movement,,,Italy,ITA,Southern Europe,Europe,Val Nerina (Umbria),,,,,,,,6,Richter,42.812,13.061,23:35,,1979,9,19,1979,9,19,5,,,5000,5000,,,28.04168132,,,,,
1979,0087,,Natural,Geophysical,Volcanic activity,Ash fall,,Mt. Etna,Italy,ITA,Southern Europe,Europe,Sicily,,,,,,,,,,37.734,15.004,,,1979,9,12,1979,9,12,9,24,,,24,,,28.04168132,,,,,
1979,0032,,Natural,Geophysical,Earthquake,Ground movement,,,Mexico,MEX,Central America,Americas,"Guerrero, Acapulco, Gudalajara, Monterrey, Puebla (Mexico city, south area)",,,,,,,,8,Richter,17.813,-101.276,05:07,,1979,3,14,1979,3,14,5,35,7500,,7535,,30000,28.04168132,,,,,
1979,0025,,Natural,Geophysical,Earthquake,Ground movement,,,Peru,PER,South America,Americas,Arequipa,,,,,,,,7,Richter,-16.39,-72.658,05:08,,1979,2,16,1979,2,16,13,1000,,100,1100,,,28.04168132,,,,,
1980,0084,,Natural,Geophysical,Earthquake,Ground movement,,,India,IND,Southern Asia,Asia,Jammu (Kashmir),,,,,,,,6,Richter,32.913,75.633,03:06,,1980,8,24,1980,8,24,13,40,,,40,,,31.84110657,,,,,
1980,0108,,Natural,Geophysical,Earthquake,Ground movement,,,Iran (Islamic Republic of),IRN,Southern Asia,Asia,Qom-Saveh area,,,,,,,,6,Richter,34.587,50.652,05:46,,1980,12,19,1980,12,19,20,,,,,,5000,31.84110657,,,,,
1980,0109,,Natural,Geophysical,Earthquake,Ground movement,,,Iran (Islamic Republic of),IRN,Southern Asia,Asia,"Qom, Fafresh ",,,,,,,,5,Richter,34.503,50.59,17:21,,1980,12,22,1980,12,22,4,100,,,100,,1000,31.84110657,,,,,
1980,0264,,Natural,Geophysical,Earthquake,Ground movement,,,Iran (Islamic Republic of),IRN,Southern Asia,Asia,Kishan,,,,,,,,6,Richter,35.4,51.26,,,1980,11,30,1980,11,30,26,,,,,,,31.84110657,,,,,
1980,0103,,Natural,Geophysical,Earthquake,Ground movement,,,Italy,ITA,Southern Europe,Europe,"Avellino, Potenza, Caserta, Naples",,,,Yes,,,,7,Richter,40.914,15.366,18:34,,1980,11,23,1980,11,23,4689,7700,400000,,407700,,20000000,31.84110657,,,,,
1980,0092,,Natural,Geophysical,Earthquake,Ground movement,,,Japan,JPN,Eastern Asia,Asia,"Tokyo, Kanto region",,,,,,,,6,Richter,35.45,139.964,02:54,,1980,9,25,1980,9,25,2,73,,,73,,1000,31.84110657,,,,,
1980,0051,,Natural,Geophysical,Earthquake,Ground movement,,,Mexico,MEX,Central America,Americas,Northwest,,,,,,,,6,Richter,32.2,-115.122,21:28,,1980,6,9,1980,6,9,2,60,,,60,,,31.84110657,,,,,
1980,0097,,Natural,Geophysical,Earthquake,Ground movement,,,Mexico,MEX,Central America,Americas,Oaxaca state,,,,,,,,7,Richter,18.211,-98.24,08:53,,1980,10,24,1980,10,24,65,300,6000,,6300,,5000,31.84110657,,,,,
1980,0071,,Natural,Geophysical,Earthquake,Ground movement,,,Nepal,NPL,Southern Asia,Asia,"Mahakali, Seti, Karnalin Bheri, Rapti zones",,,,Yes,,,,7,Richter,29.598,81.092,20:28,,1980,7,29,1980,7,29,100,5600,200000,35000,240600,,245000,31.84110657,,,,,
1980,0100,,Natural,Geophysical,Earthquake,Ground movement,,,Peru,PER,South America,Americas,Ayacucho,,,,,,,,5,Richter,-13.347,-74.545,01:58,,1980,11,12,1980,11,12,7,,3000,,3000,,1000,31.84110657,,,,,
1981,0025,,Natural,Geophysical,Earthquake,Ground movement,,,Indonesia,IDN,South-Eastern Asia,Asia,Solo Valley (Irian Jaya),,"Slide (land, mud, snow, rock)",,Yes,,,,7,Richter,-4.576,139.232,22:11,,1981,1,19,1981,1,19,306,,2682,,2682,,5000,35.13179151,,,,,
1981,0081,,Natural,Geophysical,Earthquake,Ground movement,,,Pakistan,PAK,Southern Asia,Asia,"Karakoram, Darel, Tangir, Khanbari valleys",,"Slide (land, mud, snow, rock)",,,,,,6,Richter,35.693,73.594,12:15,,1981,9,12,1981,9,12,250,2000,,,2000,,5000,35.13179151,,,,,
1981,0056,,Natural,Geophysical,Earthquake,Ground movement,,,Iran (Islamic Republic of),IRN,Southern Asia,Asia,"Golbaf region, Kerman province",,,,,,,,7,Richter,29.913,57.715,10:56,,1981,6,11,1981,6,11,2000,3000,,,3000,,5000,35.13179151,,,,,
1981,0067,,Natural,Geophysical,Earthquake,Ground movement,,,Iran (Islamic Republic of),IRN,Southern Asia,Asia,"Kerman, Golbaf, Shahdab",,,,,,,,7,Richter,30.013,57.794,20:52,,1981,7,28,1981,7,28,1200,1000,30000,,31000,,1000000,35.13179151,,,,,
1981,0123,,Natural,Geophysical,Earthquake,Ground movement,,,Italy,ITA,Southern Europe,Europe,Mazara del Vallo area (Sicily),,,,,No,No,,5,Richter,37.67 N,12.47 E,,,1981,6,7,1981,6,7,,6,300,,306,,,35.13179151,,,,,
1981,0224,,Natural,Geophysical,Earthquake,Ground movement,,,Italy,ITA,Southern Europe,Europe,South,,,,,,,,5,Richter,41.051,14.601,18:27,,1981,2,14,1981,2,14,12,,,,,,500,35.13179151,,,,,
1981,0093,,Natural,Geophysical,Earthquake,Ground movement,,,Mexico,MEX,Central America,Americas,"Mexico city, Michoacan",,,,,,,,7,Richter,18.048,-102.084,21:22,,1981,10,24,1981,10,24,3,28,,,28,,,35.13179151,,,,,
1981,0127,,Natural,Geophysical,Earthquake,Ground movement,,,Pakistan,PAK,Southern Asia,Asia,Koshkak,,,,,,,,4,Richter,29.856,66.962,01:26,,1981,12,12,1981,12,12,6,12,225,,237,,,35.13179151,,,,,
1981,0057,,Natural,Geophysical,Earthquake,Ground movement,,,Peru,PER,South America,Americas,"Ayacucho, Huancavelica",,,,Yes,,,,5,Richter,-13.166,-74.522,12:53,,1981,6,22,1981,6,22,10,100,12156,,12256,,,35.13179151,,,,,
1981,0211,,Natural,Geophysical,Earthquake,Ground movement,,,Peru,PER,South America,Americas,Ayacucho area,,,,,,,,5,Richter,-13.144,-74.376,19:32,,1981,4,18,1981,4,18,8,15,,,15,,,35.13179151,,,,,
1982,0128,,Natural,Geophysical,Earthquake,Ground movement,,,Indonesia,IDN,South-Eastern Asia,Asia,Larantuka (Flores Isl.),,"Slide (land, mud, snow, rock)",Tsunami/Tidal wave,,,,,6,Richter,-8.405,123.08,20:28,,1982,12,25,1982,12,25,13,417,6400,2000,8817,,1450,37.28586971,,,,,
1982,0031,,Natural,Geophysical,Earthquake,Ground movement,,,Indonesia,IDN,South-Eastern Asia,Asia,Sukabumi (Java),,Tsunami/Tidal wave,,,,,,5,Richter,4.374,97.755,11:22,,1982,2,24,1982,2,24,,,15000,,15000,,3500,37.28586971,,,,,
1982,0036,,Natural,Geophysical,Earthquake,Ground movement,,,Japan,JPN,Eastern Asia,Asia,"Hokkaido, Urakawa, Hiroo",,Tsunami/Tidal wave,,,,,,7,Richter,42.158,142.361,11:32,,1982,3,21,1982,3,21,110,100,1000,,1100,,1000,37.28586971,,,,,
1982,0141,,Natural,Geophysical,Earthquake,Ground movement,,,Honduras,HND,Central America,Americas,Comayagua area,,,,,No,No,,5,Richter,14.53 N,87.72 W,,,1982,4,27,1982,4,27,,,500,,500,,,37.28586971,,,,,
1982,0106,,Natural,Geophysical,Earthquake,Ground movement,,,Italy,ITA,Southern Europe,Europe,Perugia area (Umbria),,,,,,,,4,Richter,43.164,12.586,11:56,,1982,10,17,1982,10,17,,,5000,,5000,,35000,37.28586971,,,,,
1982,0291,,Natural,Geophysical,Earthquake,Ground movement,,,Mexico,MEX,Central America,Americas,"Near coast of Guerrero, Michoacan, Orziba, Oaxaca, Guadalupe",,,,,,,,7,Richter,16.558,-98.358,04:59,,1982,6,7,1982,6,7,9,17,,,17,,,37.28586971,,,,,
1982,0293,,Natural,Geophysical,Earthquake,Ground movement,,,Peru,PER,South America,Americas,"Lima, Lunahuana, Huancayo",,,,,,,,6,Richter,-12.69,-76.065,18:24,,1982,3,28,1982,3,28,3,,,,,,5000,37.28586971,,,,,
1982,0307,,Natural,Geophysical,Earthquake,Ground movement,,,Poland,POL,Eastern Europe,Europe,Bytom,,,,,No,No,,,Richter,50.21 N,18.51 E,,,1982,6,4,1982,6,4,,,1050,,1050,,,37.28586971,,,,,
1983,0109,,Natural,Geophysical,Earthquake,Ground movement,,,Philippines (the),PHL,South-Eastern Asia,Asia,Ilocos Norte,,"Slide (land, mud, snow, rock)",Tsunami/Tidal wave,,,,,7,Richter,18.231,120.86,20:17,,1983,8,18,1983,8,18,19,176,1725,,1901,,2227,38.4836513,,,,,
1983,0058,,Natural,Geophysical,Earthquake,Ground movement,,,Iran (Islamic Republic of),IRN,Southern Asia,Asia,"Tehran, Damavond, Amoi",,"Slide (land, mud, snow, rock)",,,,,,5,Richter,35.953,52.264,15:27,,1983,3,26,1983,3,26,30,61,7005,,7066,,5000,38.4836513,,,,,
1983,0437,,Natural,Geophysical,Earthquake,Ground movement,,,Japan,JPN,Eastern Asia,Asia,Near South coast Honshu,,"Slide (land, mud, snow, rock)",,,,,,5,Richter,35.5,139.07,12:47,,1983,8,8,1983,8,8,1,28,,,28,,,38.4836513,,,,,
1983,0081,,Natural,Geophysical,Earthquake,Tsunami,,,Japan,JPN,Eastern Asia,Asia,"Nihon- Kai-Chubu, Western Honshu, Akita, Aomori, Hokkaido",,Tsunami/Tidal wave,,,,,,8,Richter,40.462,139.102,11:59,,1983,5,26,1983,5,26,102,77,,,77,,416000,38.4836513,,,,,
1983,0067,,Natural,Geophysical,Earthquake,Ground movement,,,Indonesia,IDN,South-Eastern Asia,Asia,Banda Aceh (North Sumatra),,,,,,,,7,Richter,5.723,94.722,09:51,,1983,4,3,1983,4,3,,100,,,100,,1000,38.4836513,,,,,
1983,0432,,Natural,Geophysical,Earthquake,Ground movement,,,Iran (Islamic Republic of),IRN,Southern Asia,Asia,Zanjan (Western Region),,,,,,,,6,Richter,36.948,49.18,06:11,,1983,7,22,1983,7,22,3,41,,375,416,,5000,38.4836513,,,,,
1983,0112,,Natural,Geophysical,Earthquake,Ground movement,,,Italy,ITA,Southern Europe,Europe,Pozzuoli (Naples),,,,,No,No,,,Richter,40.50 N,14.15 E,,,1983,9,19,1983,9,19,,30,20000,1000,21030,,,38.4836513,,,,,
1983,0165,,Natural,Geophysical,Earthquake,Ground movement,,,Pakistan,PAK,Southern Asia,Asia,"Pakistan/Afghanistan border, Hindu Kusk region",,,,,,,,7,Richter,36.372,70.738,04:52,,1983,12,31,1983,12,31,24,543,,,543,,3000,38.4836513,,,,,
1983,0070,,Natural,Geophysical,Earthquake,Ground movement,,,Peru,PER,South America,Americas,Chimbote,,,,,,,,5,Richter,-4.843,-78.103,07:07,,1983,4,12,1983,4,12,10,,,,,,500,38.4836513,,,,,
1983,0162,,Natural,Geophysical,Earthquake,Ground movement,,,Papua New Guinea,PNG,Melanesia,Oceania,New Britain region,,,,,,,,6,Richter,5.392,151.868,11:02,,1983,12,22,1983,12,22,10,,,,,,,38.4836513,,,,,
1983,0132,,Natural,Geophysical,Volcanic activity,Ash fall,,Rabaul,Papua New Guinea,PNG,Melanesia,Oceania,,,,,Yes,,,,,,-4.271,152.203,,,1983,10,15,1983,10,15,,,25000,,25000,,,38.4836513,,,,,
1984,0084,,Natural,Geophysical,Earthquake,Ground movement,,,Japan,JPN,Eastern Asia,Asia,"Honshu, Nagano prefecture (Honshu)",,"Slide (land, mud, snow, rock)",,,No,No,,7,Richter,36.39 N,138.10 E,,,1984,9,14,1984,9,14,20,,,,,,43000,40.13865994,,,,,
1984,0335,,Natural,Geophysical,Earthquake,Ground movement,,,Japan,JPN,Eastern Asia,Asia,Kyushu (Shikoku Island),,Tsunami/Tidal wave,,,No,No,,7,Richter,32.50 N,130.42 E,,,1984,8,6,1984,8,6,,9,,,9,,,40.13865994,,,,,
1984,0015,,Natural,Geophysical,Earthquake,Ground movement,,,Indonesia,IDN,South-Eastern Asia,Asia,Mamuju (Central Sulawesi),,,,,No,No,,6,Richter,2.41 S,118.55 E,,,1984,1,10,1984,1,10,2,89,,,89,,,40.13865994,,,,,
1984,0072,,Natural,Geophysical,Earthquake,Ground movement,,,Indonesia,IDN,South-Eastern Asia,Asia,Pahae Jae sub-district (North Sumatra),,,,,No,No,,5,Richter,1.3 S,98.0 E,,,1984,8,27,1984,8,27,,108,1750,,1858,,1000,40.13865994,,,,,
1984,0124,,Natural,Geophysical,Earthquake,Ground movement,,,India,IND,Southern Asia,Asia,Cachar district (Assam),,,,,No,No,,6,Richter,24.40 N,92.34 E,,,1984,12,31,1984,12,31,20,100,800,10000,10900,,,40.13865994,,,,,
1984,0038,,Natural,Geophysical,Earthquake,Ground movement,,,Italy,ITA,Southern Europe,Europe,"Assisi, Gubbio, Perugia area (Umbria Province)",,,,,No,No,,6,Richter,43.07 N,12.23 E,,,1984,4,29,1984,4,29,,200,,4000,4200,,,40.13865994,,,,,
1984,0047,,Natural,Geophysical,Earthquake,Ground movement,,,Italy,ITA,Southern Europe,Europe,Abruzzo area,,,,,No,No,,5,Richter,42.10 N,13.50 E,,,1984,5,7,1984,5,7,3,83,5000,,5083,,,40.13865994,,,,,
1984,0274,,Natural,Geophysical,Earthquake,Ground movement,,,Italy,ITA,Southern Europe,Europe,"Mt. Etna, Catania (Sicily)",,,,,No,No,,,Richter,37.31 N,15.06 E,,,1984,10,20,1984,10,20,1,2,,300,302,,,40.13865994,,,,,
1984,0339,,Natural,Geophysical,Earthquake,Ground movement,,,Pakistan,PAK,Southern Asia,Asia,Chiltral-Landi Kotal (Hindu Kush),,,,,No,No,,7,Richter,34.07 N,71.15 E,,,1984,2,17,1984,2,17,4,12,,,12,,,40.13865994,,,,,
1985,0110,,Natural,Geophysical,Earthquake,Ground movement,,,Indonesia,IDN,South-Eastern Asia,Asia,Paniai District (Eastern Irian Jaya),,,,,,,,6,Richter,-4.13,136.049,17:42,,1985,9,15,1985,9,15,10,7,,,7,,,41.56182689,,,,,
1985,0027,,Natural,Geophysical,Earthquake,Ground movement,,,Iran (Islamic Republic of),IRN,Southern Asia,Asia,Fath-Abad (Firuzabad-Johrom region),,,,,,,,5,Richter,28.399,52.997,00:22,,1985,2,3,1985,2,3,1,80,7000,,7080,,,41.56182689,,,,,
1985,0109,,Natural,Geophysical,Earthquake,Ground movement,,,Mexico,MEX,Central America,Americas,"Mexico city, Michoacan, Jalisco",,,,Yes,,,,8,Richter,18.19,-102.533,03:47,,1985,9,19,1985,9,19,9500,30204,2000000,100000,2130204,,4104000,41.56182689,,,,,
1985,0078,,Natural,Geophysical,Earthquake,Ground movement,,,Pakistan,PAK,Southern Asia,Asia,"Chitral, Swat districts",,,,,,,,7,Richter,36.19,70.896,12:54,,1985,7,29,1985,7,29,5,38,12000,,12038,,2000,41.56182689,,,,,
1985,0191,,Natural,Geophysical,Earthquake,Ground movement,,,Peru,PER,South America,Americas,Chimbote area,,,,,,,,6,Richter,-9.159,-78.887,06:26,,1985,8,21,1985,8,21,,100,,300,400,,,41.56182689,,,,,
1985,0171,,Natural,Geophysical,Earthquake,Ground movement,,,Philippines (the),PHL,South-Eastern Asia,Asia,Mindanao,,,,,,,,7,Richter,7.758,123.544,09:49,,1985,3,19,1985,3,19,2,25,150,,175,,,41.56182689,,,,,
1985,0227,,Natural,Geophysical,Earthquake,Ground movement,,,Papua New Guinea,PNG,Melanesia,Oceania,"Bialla, Piona regions (West New Britain)",,,,,,,,7,Richter,-5.599,151.045,01:35,,1985,5,11,1985,5,11,,,,,,,1000,41.56182689,,,,,
1986,0076,,Natural,Geophysical,Earthquake,Ground movement,,,Papua New Guinea,PNG,Melanesia,Oceania,East Sepik province,,"Slide (land, mud, snow, rock)",,,No,No,,7,Richter,4.0 S,142.0 E,,,1986,6,24,1986,6,24,,,1000,,1000,,500,42.35069857,,,,,
1986,0372,,Natural,Geophysical,Earthquake,Ground movement,,,India,IND,Southern Asia,Asia,Dharmsala,,,,,No,No,,5,Richter,32.128 N,76.374 E,,,1986,4,26,1986,4,26,6,30,,,30,,5000,42.35069857,,,,,
1986,0174,,Natural,Geophysical,Earthquake,Ground movement,,,Iran (Islamic Republic of),IRN,Southern Asia,Asia,Mamasani area,,,,,No,No,,6,Richter,29.962 N,51.582 E,,,1986,7,12,1986,7,12,1,4,1500,,1504,,,42.35069857,,,,,
1986,0189,,Natural,Geophysical,Earthquake,Ground movement,,,Iran (Islamic Republic of),IRN,Southern Asia,Asia,Mamasani area,,,,,No,No,,6,Richter,29.985 N,51.623 E,,,1986,12,20,1986,12,20,,,400,,400,,,42.35069857,,,,,
1986,0186,,Natural,Geophysical,Earthquake,Ground movement,,,Pakistan,PAK,Southern Asia,Asia,Khuzdar area,,,,,No,No,,5,Richter,27.727 N,66.650 E,,,1986,10,16,1986,10,16,,,750,,750,,,42.35069857,,,,,
1986,0051,,Natural,Geophysical,Earthquake,Ground movement,,,Peru,PER,South America,Americas,"Chimbote, Pucallpa (Cuzco)",,,,,No,No,,6,Richter,13.32 S,71.57 W,,,1986,4,5,1986,4,5,15,80,8000,,8080,,22000,42.35069857,,,,,
1986,0150,,Natural,Geophysical,Earthquake,Ground movement,,,Peru,PER,South America,Americas,Huarmey area,,,,,No,No,,5,Richter,9.505 S,77.512 W,,,1986,1,11,1986,1,11,1,,,100,100,,,42.35069857,,,,,
1987,0213,,Natural,Geophysical,Earthquake,Ground movement,,,Indonesia,IDN,South-Eastern Asia,Asia,South Pantar Isl.(Timor),,"Slide (land, mud, snow, rock)",Tsunami/Tidal wave,,,,,7,Richter,-8.247,124.155,08:43,,1987,11,26,1987,11,26,125,100,16000,1000,17100,,5000,43.90266239,,,,,
1987,0058,,Natural,Geophysical,Earthquake,Ground movement,,,Papua New Guinea,PNG,Melanesia,Oceania,"Umboi Isl., Finschafen area of Huon peninsula",,"Slide (land, mud, snow, rock)",,Yes,Yes,,,7,Richter,-6.088,147.689,4:33,,1987,2,9,1987,2,9,1,,4000,,4000,,2625,43.90266239,,,,,
1987,0086,,Natural,Geophysical,Earthquake,Ground movement,,,Indonesia,IDN,South-Eastern Asia,Asia,Tarutung (North Sumatra),,,,,,,,6,Richter,2.244,98.866,02:22,,1987,4,26,1987,4,26,2,1,15000,,15001,,,43.90266239,,,,,
1987,0101,,Natural,Geophysical,Earthquake,Ground movement,,,Iran (Islamic Republic of),IRN,Southern Asia,Asia,NAHAVAND-HAMADEN-TUYSARKAN (Southwest Teheran),,,,,,,,5,Richter,34.076,48.266,09:57,,1987,5,29,1987,5,29,2,50,,,50,,,43.90266239,,,,,
1987,0229,,Natural,Geophysical,Earthquake,Ground movement,,,Japan,JPN,Eastern Asia,Asia,Chiba prefecture (Near Tokyo),,,,,,,,6,Richter,35.38,140.214,11:08,,1987,12,17,1987,12,17,2,53,22599,,22652,,,43.90266239,,,,,
1987,0254,,Natural,Geophysical,Earthquake,Ground movement,,,Mexico,MEX,Central America,Americas,Mexicali,,,,,,,,7,Richter,33.015,-115.852,05:15,,1987,11,24,1987,11,24,2,50,3000,,3050,,,43.90266239,,,,,
1987,0068,,Natural,Geophysical,Earthquake,Ground movement,,,New Zealand,NZL,Australia and New Zealand,Oceania,Edgecumbe (Bay of Plenty),,,,,,,,7,Richter,-37.965,176.765,13:42,,1987,3,2,1987,3,2,1,25,7000,,7025,,210000,43.90266239,,,,,
1988,0382,,Natural,Geophysical,Earthquake,Ground movement,,,India,IND,Southern Asia,Asia,"Dharbhanga, Madhubani, Saharsa, Munger, Khagana, Bihar Sharie (Bihar State)",,,,Yes,,,,7,Richter,26.755,616,4:39,,1988,8,21,1988,8,21,382,3766,20000000,,20003766,,71500,45.69289676,,,,,
1988,0041,,Natural,Geophysical,Earthquake,Ground movement,,,Iran (Islamic Republic of),IRN,Southern Asia,Asia,"Mamasani, Bushehr, Nurabad areas",,,,,,,,6,Richter,29.974,51.679,19:34,,1988,8,11,1988,8,11,1,,10000,,10000,,,45.69289676,,,,,
1988,0144,,Natural,Geophysical,Earthquake,Ground movement,,,Iran (Islamic Republic of),IRN,Southern Asia,Asia,"Deh Dasht, Bahbahan",,,,,,,,6,Richter,30.89,50.194,05:42,,1988,3,30,1988,3,30,,30,3000,,3030,,,45.69289676,,,,,
1988,0383,,Natural,Geophysical,Earthquake,Ground movement,,,Nepal,NPL,Southern Asia,Asia,"Daharam, Dhankuta, Terathum, Panchthar, Ilam, Morang, Bhaktapur",,,,Yes,Yes,,,7,Richter,26.755,86.616,04:54,,1988,8,20,1988,8,20,709,1016,300000,,301016,,60000,45.69289676,,,,,
1978,0263,,Natural,Geophysical,Earthquake,Ground movement,,,Turkey,TUR,Western Asia,Asia,"Pulumur, Erzincan",,,,,,,,5,Richter,36.69,39.79,06:17,,1978,2,15,1978,2,15,,20,125,2500,2645,,,25.2049907,,,,,
1979,0039,,Natural,Geophysical,Earthquake,Ground movement,,,Yugoslavia,YUG,Southern Europe,Europe,Montenegro,,Tsunami/Tidal wave,,Yes,,,,7,Richter,42.096,19.209,07:19,,1979,4,15,1979,4,15,121,100,300000,10000,310100,,450000,28.04168132,,,,,
1979,0052,,Natural,Geophysical,Earthquake,Ground movement,,,Yugoslavia,YUG,Southern Europe,Europe,Kotor-Ulcinj area (South Adriatic coast) (Montenegro); Debar (Macedonia),,,,,,,,6,Richter,42.255,18.752,18:23,,1979,5,24,1979,5,24,,80,,,80,,,28.04168132,,,,,
1980,0046,,Natural,Geophysical,Earthquake,Ground movement,,,Yugoslavia,YUG,Southern Europe,Europe,"Mt Kopaonik, Aleksandrovac, Brus, Kursumlija, Raska areas (Serbia)",,"Slide (land, mud, snow, rock)",,,,,,6,Richter,43.294,20.837,21:02,,1980,5,18,1980,5,18,,100,5000,,5100,,,31.84110657,,,,,
1980,0184,,Natural,Geophysical,Earthquake,Ground movement,,,Venezuela (Bolivarian Republic of),VEN,South America,Americas,"San Cristobal aera (Venezuela) , Cucta area (Colombia)",,,,,,,,5,Richter,8.045,-72.441,13:35,,1980,11,26,1980,11,26,,36,150,,186,,,31.84110657,,,,,
1981,0073,,Natural,Geophysical,Earthquake,Ground movement,,,Yugoslavia,YUG,Southern Europe,Europe,Banja Luka (Bosnia and Herzegovina),,,,,,,,6,Richter,44.849,17.312,03:58,,1981,8,13,1981,8,13,,44,,,44,,5000,35.13179151,,,,,
1982,0081,,Natural,Geophysical,Earthquake,Ground movement,,,El Salvador,SLV,Central America,Americas,San Salvador,,"Slide (land, mud, snow, rock)",,Yes,,,,7,Richter,13.332,-89.387,00:21,,1982,6,19,1982,6,19,20,,30000,2500,32500,,5000,37.28586971,,,,,
1982,0131,,Natural,Geophysical,Earthquake,Ground movement,,,Yemen Arab Rep,YMN,Western Asia,Asia,Dhamar province,,,,Yes,,,,6,Richter,14.701,44.379,12:12,,1982,12,13,1982,12,13,1507,1500,400000,,401500,,2000000,37.28586971,,,,,
